PARM_TimeUS,PARM_Name,PARM_Value,GPS_TimeUS,GPS_Status,GPS_GMS,GPS_GWk,GPS_NSats,GPS_HDop,GPS_Lat,GPS_Lng,GPS_RAlt,GPS_Alt,GPS_Spd,GPS_GCrs,GPS_VZ,GPS_U,GPS2_TimeUS,GPS2_Status,GPS2_GMS,GPS2_GWk,GPS2_NSats,GPS2_HDop,GPS2_Lat,GPS2_Lng,GPS2_RAlt,GPS2_Alt,GPS2_Spd,GPS2_GCrs,GPS2_VZ,GPS2_U,GPA_TimeUS,GPA_VDop,GPA_HAcc,GPA_VAcc,GPA_SAcc,GPA2_TimeUS,GPA2_VDop,GPA2_HAcc,GPA2_VAcc,GPA2_SAcc,IMU_TimeUS,IMU_GyrX,IMU_GyrY,IMU_GyrZ,IMU_AccX,IMU_AccY,IMU_AccZ,IMU_ErrG,IMU_ErrA,IMU_Temp,IMU_GyHlt,IMU_AcHlt,MSG_TimeUS,MSG_Message,RCIN_TimeUS,RCIN_C1,RCIN_C2,RCIN_C3,RCIN_C4,RCIN_C5,RCIN_C6,RCIN_C7,RCIN_C8,RCIN_C9,RCIN_C10,RCIN_C11,RCIN_C12,RCIN_C13,RCIN_C14,RCOU_TimeUS,RCOU_Ch1,RCOU_Ch2,RCOU_Ch3,RCOU_Ch4,RCOU_Ch5,RCOU_Ch6,RCOU_Ch7,RCOU_Ch8,RCOU_Ch9,RCOU_Ch10,RCOU_Ch11,RCOU_Ch12,RSSI_TimeUS,RSSI_RXRSSI,BARO_TimeUS,BARO_Alt,BARO_Press,BARO_Temp,BARO_CRt,POWR_TimeUS,POWR_Vcc,POWR_VServo,POWR_Flags,CMD_TimeUS,CMD_CTot,CMD_CNum,CMD_CId,CMD_Prm1,CMD_Prm2,CMD_Prm3,CMD_Prm4,CMD_Lat,CMD_Lng,CMD_Alt,RAD_TimeUS,RAD_RSSI,RAD_RemRSSI,RAD_TxBuf,RAD_Noise,RAD_RemNoise,RAD_RxErrors,RAD_Fixed,CAM_TimeUS,CAM_GPSTime,CAM_GPSWeek,CAM_Lat,CAM_Lng,CAM_Alt,CAM_RelAlt,CAM_GPSAlt,CAM_Roll,CAM_Pitch,CAM_Yaw,TRIG_TimeUS,TRIG_GPSTime,TRIG_GPSWeek,TRIG_Lat,TRIG_Lng,TRIG_Alt,TRIG_RelAlt,TRIG_GPSAlt,TRIG_Roll,TRIG_Pitch,TRIG_Yaw,ARSP_TimeUS,ARSP_Airspeed,ARSP_DiffPress,ARSP_Temp,ARSP_RawPress,ARSP_Offset,CURR_TimeUS,CURR_Throttle,CURR_Volt,CURR_Curr,CURR_Vcc,CURR_CurrTot,CURR_Volt2,ATT_TimeUS,ATT_DesRoll,ATT_Roll,ATT_DesPitch,ATT_Pitch,ATT_DesYaw,ATT_Yaw,ATT_ErrRP,ATT_ErrYaw,MAG_TimeUS,MAG_MagX,MAG_MagY,MAG_MagZ,MAG_OfsX,MAG_OfsY,MAG_OfsZ,MAG_MOfsX,MAG_MOfsY,MAG_MOfsZ,MAG_Health,MODE_TimeUS,MODE_Mode,MODE_ModeNum,RFND_TimeUS,RFND_Dist1,RFND_Dist2,DMS_TimeMS,DMS_N,DMS_Dp,DMS_RT,DMS_RS,DMS_Er,DMS_Fa,DMS_Fmn,DMS_Fmx,DMS_Pa,DMS_Pmn,DMS_Pmx,DMS_Sa,DMS_Smn,DMS_Smx,IMU2_TimeUS,IMU2_GyrX,IMU2_GyrY,IMU2_GyrZ,IMU2_AccX,IMU2_AccY,IMU2_AccZ,IMU2_ErrG,IMU2_ErrA,IMU2_Temp,IMU2_GyHlt,IMU2_AcHlt,IMU3_TimeUS,IMU3_GyrX,IMU3_GyrY,IMU3_GyrZ,IMU3_AccX,IMU3_AccY,IMU3_AccZ,IMU3_ErrG,IMU3_ErrA,IMU3_Temp,IMU3_GyHlt,IMU3_AcHlt,AHR2_TimeUS,AHR2_Roll,AHR2_Pitch,AHR2_Yaw,AHR2_Alt,AHR2_Lat,AHR2_Lng,POS_TimeUS,POS_Lat,POS_Lng,POS_Alt,POS_RelAlt,SIM_TimeUS,SIM_Roll,SIM_Pitch,SIM_Yaw,SIM_Alt,SIM_Lat,SIM_Lng,EKF1_TimeUS,EKF1_Roll,EKF1_Pitch,EKF1_Yaw,EKF1_VN,EKF1_VE,EKF1_VD,EKF1_dPD,EKF1_PN,EKF1_PE,EKF1_PD,EKF1_GX,EKF1_GY,EKF1_GZ,EKF2_TimeUS,EKF2_Ratio,EKF2_AZ1bias,EKF2_AZ2bias,EKF2_VWN,EKF2_VWE,EKF2_MN,EKF2_ME,EKF2_MD,EKF2_MX,EKF2_MY,EKF2_MZ,EKF3_TimeUS,EKF3_IVN,EKF3_IVE,EKF3_IVD,EKF3_IPN,EKF3_IPE,EKF3_IPD,EKF3_IMX,EKF3_IMY,EKF3_IMZ,EKF3_IVT,EKF4_TimeUS,EKF4_SV,EKF4_SP,EKF4_SH,EKF4_SMX,EKF4_SMY,EKF4_SMZ,EKF4_SVT,EKF4_OFN,EKF4_OFE,EKF4_FS,EKF4_TS,EKF4_SS,EKF4_GPS,EKF5_TimeUS,EKF5_normInnov,EKF5_FIX,EKF5_FIY,EKF5_AFI,EKF5_HAGL,EKF5_offset,EKF5_RI,EKF5_meaRng,EKF5_errHAGL,NKF1_TimeUS,NKF1_Roll,NKF1_Pitch,NKF1_Yaw,NKF1_VN,NKF1_VE,NKF1_VD,NKF1_dPD,NKF1_PN,NKF1_PE,NKF1_PD,NKF1_GX,NKF1_GY,NKF1_GZ,NKF2_TimeUS,NKF2_AZbias,NKF2_GSX,NKF2_GSY,NKF2_GSZ,NKF2_VWN,NKF2_VWE,NKF2_MN,NKF2_ME,NKF2_MD,NKF2_MX,NKF2_MY,NKF2_MZ,NKF2_MI,NKF3_TimeUS,NKF3_IVN,NKF3_IVE,NKF3_IVD,NKF3_IPN,NKF3_IPE,NKF3_IPD,NKF3_IMX,NKF3_IMY,NKF3_IMZ,NKF3_IYAW,NKF3_IVT,NKF4_TimeUS,NKF4_SV,NKF4_SP,NKF4_SH,NKF4_SM,NKF4_SVT,NKF4_errRP,NKF4_OFN,NKF4_OFE,NKF4_FS,NKF4_TS,NKF4_SS,NKF4_GPS,NKF4_PI,NKF5_TimeUS,NKF5_normInnov,NKF5_FIX,NKF5_FIY,NKF5_AFI,NKF5_HAGL,NKF5_offset,NKF5_RI,NKF5_meaRng,NKF5_errHAGL,NKF6_TimeUS,NKF6_Roll,NKF6_Pitch,NKF6_Yaw,NKF6_VN,NKF6_VE,NKF6_VD,NKF6_dPD,NKF6_PN,NKF6_PE,NKF6_PD,NKF6_GX,NKF6_GY,NKF6_GZ,NKF7_TimeUS,NKF7_AZbias,NKF7_GSX,NKF7_GSY,NKF7_GSZ,NKF7_VWN,NKF7_VWE,NKF7_MN,NKF7_ME,NKF7_MD,NKF7_MX,NKF7_MY,NKF7_MZ,NKF7_MI,NKF8_TimeUS,NKF8_IVN,NKF8_IVE,NKF8_IVD,NKF8_IPN,NKF8_IPE,NKF8_IPD,NKF8_IMX,NKF8_IMY,NKF8_IMZ,NKF8_IYAW,NKF8_IVT,NKF9_TimeUS,NKF9_SV,NKF9_SP,NKF9_SH,NKF9_SM,NKF9_SVT,NKF9_errRP,NKF9_OFN,NKF9_OFE,NKF9_FS,NKF9_TS,NKF9_SS,NKF9_GPS,NKF9_PI,TERR_TimeUS,TERR_Status,TERR_Lat,TERR_Lng,TERR_Spacing,TERR_TerrH,TERR_CHeight,TERR_Pending,TERR_Loaded,UBX1_TimeUS,UBX1_Instance,UBX1_noisePerMS,UBX1_jamInd,UBX1_aPower,UBX1_agcCnt,UBX2_TimeUS,UBX2_Instance,UBX2_ofsI,UBX2_magI,UBX2_ofsQ,UBX2_magQ,UBY1_TimeUS,UBY1_Instance,UBY1_noisePerMS,UBY1_jamInd,UBY1_aPower,UBY1_agcCnt,UBY2_TimeUS,UBY2_Instance,UBY2_ofsI,UBY2_magI,UBY2_ofsQ,UBY2_magQ,GRAW_TimeUS,GRAW_WkMS,GRAW_Week,GRAW_numSV,GRAW_sv,GRAW_cpMes,GRAW_prMes,GRAW_doMes,GRAW_mesQI,GRAW_cno,GRAW_lli,GRXH_TimeUS,GRXH_rcvTime,GRXH_week,GRXH_leapS,GRXH_numMeas,GRXH_recStat,GRXS_TimeUS,GRXS_prMes,GRXS_cpMes,GRXS_doMes,GRXS_gnss,GRXS_sv,GRXS_freq,GRXS_lock,GRXS_cno,GRXS_prD,GRXS_cpD,GRXS_doD,GRXS_trk,SBFE_TimeUS,SBFE_TOW,SBFE_WN,SBFE_Mode,SBFE_Err,SBFE_Lat,SBFE_Long,SBFE_Height,SBFE_Undul,SBFE_Vn,SBFE_Ve,SBFE_Vu,SBFE_COG,ESC1_TimeUS,ESC1_RPM,ESC1_Volt,ESC1_Curr,ESC1_Temp,ESC2_TimeUS,ESC2_RPM,ESC2_Volt,ESC2_Curr,ESC2_Temp,ESC3_TimeUS,ESC3_RPM,ESC3_Volt,ESC3_Curr,ESC3_Temp,ESC4_TimeUS,ESC4_RPM,ESC4_Volt,ESC4_Curr,ESC4_Temp,ESC5_TimeUS,ESC5_RPM,ESC5_Volt,ESC5_Curr,ESC5_Temp,ESC6_TimeUS,ESC6_RPM,ESC6_Volt,ESC6_Curr,ESC6_Temp,ESC7_TimeUS,ESC7_RPM,ESC7_Volt,ESC7_Curr,ESC7_Temp,ESC8_TimeUS,ESC8_RPM,ESC8_Volt,ESC8_Curr,ESC8_Temp,MAG2_TimeUS,MAG2_MagX,MAG2_MagY,MAG2_MagZ,MAG2_OfsX,MAG2_OfsY,MAG2_OfsZ,MAG2_MOfsX,MAG2_MOfsY,MAG2_MOfsZ,MAG2_Health,MAG3_TimeUS,MAG3_MagX,MAG3_MagY,MAG3_MagZ,MAG3_OfsX,MAG3_OfsY,MAG3_OfsZ,MAG3_MOfsX,MAG3_MOfsY,MAG3_MOfsZ,MAG3_Health,ACC1_TimeUS,ACC1_SampleUS,ACC1_AccX,ACC1_AccY,ACC1_AccZ,ACC2_TimeUS,ACC2_SampleUS,ACC2_AccX,ACC2_AccY,ACC2_AccZ,ACC3_TimeUS,ACC3_SampleUS,ACC3_AccX,ACC3_AccY,ACC3_AccZ,GYR1_TimeUS,GYR1_SampleUS,GYR1_GyrX,GYR1_GyrY,GYR1_GyrZ,GYR2_TimeUS,GYR2_SampleUS,GYR2_GyrX,GYR2_GyrY,GYR2_GyrZ,GYR3_TimeUS,GYR3_SampleUS,GYR3_GyrX,GYR3_GyrY,GYR3_GyrZ,PIDR_TimeUS,PIDR_Des,PIDR_P,PIDR_I,PIDR_D,PIDR_FF,PIDR_AFF,PIDP_TimeUS,PIDP_Des,PIDP_P,PIDP_I,PIDP_D,PIDP_FF,PIDP_AFF,PIDY_TimeUS,PIDY_Des,PIDY_P,PIDY_I,PIDY_D,PIDY_FF,PIDY_AFF,PIDA_TimeUS,PIDA_Des,PIDA_P,PIDA_I,PIDA_D,PIDA_FF,PIDA_AFF,PIDS_TimeUS,PIDS_Des,PIDS_P,PIDS_I,PIDS_D,PIDS_FF,PIDS_AFF,BAR2_TimeUS,BAR2_Alt,BAR2_Press,BAR2_Temp,BAR2_CRt,BAR3_TimeUS,BAR3_Alt,BAR3_Press,BAR3_Temp,BAR3_CRt,VIBE_TimeUS,VIBE_VibeX,VIBE_VibeY,VIBE_VibeZ,VIBE_Clip0,VIBE_Clip1,VIBE_Clip2,IMT_TimeUS,IMT_DelT,IMT_DelvT,IMT_DelAX,IMT_DelAY,IMT_DelAZ,IMT_DelVX,IMT_DelVY,IMT_DelVZ,IMT2_TimeUS,IMT2_DelT,IMT2_DelvT,IMT2_DelAX,IMT2_DelAY,IMT2_DelAZ,IMT2_DelVX,IMT2_DelVY,IMT2_DelVZ,IMT3_TimeUS,IMT3_DelT,IMT3_DelvT,IMT3_DelAX,IMT3_DelAY,IMT3_DelAZ,IMT3_DelVX,IMT3_DelVY,IMT3_DelVZ,ORGN_TimeUS,ORGN_Type,ORGN_Lat,ORGN_Lng,ORGN_Alt,RPM_TimeUS,RPM_rpm1,RPM_rpm2,GMB1_TimeMS,GMB1_dt,GMB1_dax,GMB1_day,GMB1_daz,GMB1_dvx,GMB1_dvy,GMB1_dvz,GMB1_jx,GMB1_jy,GMB1_jz,GMB2_TimeMS,GMB2_es,GMB2_ex,GMB2_ey,GMB2_ez,GMB2_rx,GMB2_ry,GMB2_rz,GMB2_tx,GMB2_ty,GMB2_tz,GMB3_TimeMS,GMB3_rl_torque_cmd,GMB3_el_torque_cmd,GMB3_az_torque_cmd,SBPH_TimeUS,SBPH_CrcError,SBPH_LastInject,SBPH_IARhyp,SBR1_TimeUS,SBR1_msg_type,SBR1_sender_id,SBR1_msg_len,SBR1_d1,SBR2_TimeUS,SBR2_msg_type,SBR2_d2,SBR2_d3,SBR2_d4,ATUN_TimeUS,ATUN_Axis,ATUN_TuneStep,ATUN_Targ,ATUN_Min,ATUN_Max,ATUN_RP,ATUN_RD,ATUN_SP,ATUN_ddt,ATDE_TimeUS,ATDE_Angle,ATDE_Rate,PTUN_TimeUS,PTUN_Param,PTUN_TunVal,PTUN_CtrlIn,PTUN_TunLo,PTUN_TunHi,OF_TimeUS,OF_Qual,OF_flowX,OF_flowY,OF_bodyX,OF_bodyY,NTUN_TimeUS,NTUN_DPosX,NTUN_DPosY,NTUN_PosX,NTUN_PosY,NTUN_DVelX,NTUN_DVelY,NTUN_VelX,NTUN_VelY,NTUN_DAccX,NTUN_DAccY,CTUN_TimeUS,CTUN_ThrIn,CTUN_AngBst,CTUN_ThrOut,CTUN_DAlt,CTUN_Alt,CTUN_BarAlt,CTUN_DSAlt,CTUN_SAlt,CTUN_DCRt,CTUN_CRt,PM_TimeUS,PM_NLon,PM_NLoop,PM_MaxT,PM_PMT,PM_I2CErr,PM_INSErr,RATE_TimeUS,RATE_RDes,RATE_R,RATE_ROut,RATE_PDes,RATE_P,RATE_POut,RATE_YDes,RATE_Y,RATE_YOut,RATE_ADes,RATE_A,RATE_AOut,MOTB_TimeUS,MOTB_LiftMax,MOTB_BatVolt,MOTB_BatRes,MOTB_ThLimit,STRT_TimeUS,EV_TimeUS,EV_Id,D16_TimeUS,D16_Id,D16_Value,DU16_TimeUS,DU16_Id,DU16_Value,D32_TimeUS,D32_Id,D32_Value,DU32_TimeUS,DU32_Id,DU32_Value,DFLT_TimeUS,DFLT_Id,DFLT_Value,ERR_TimeUS,ERR_Subsys,ERR_ECode,HELI_TimeUS,HELI_DRRPM,HELI_ERRPM,PL_TimeUS,PL_Heal,PL_bX,PL_bY,PL_eX,PL_eY,PL_pX,PL_pY,GUID_TimeUS,GUID_Type,GUID_pX,GUID_pY,GUID_pZ,GUID_vX,GUID_vY,GUID_vZ
5352300,b'CHUTE_TYPE\x00\x00\x00\x00\x00\x00',0.0,,,,,,,,,,,,,,,,,,,,,,,,,,,,,,,,,,,,,,,5352227,0.008390920236706734,-0.0004780379240401089,-0.0004142693942412734,0.3517192304134369,0.0641675665974617,-9.816664695739746,0,0,0.0,1,1,,,,,,,,,,,,,,,,,,,,,,,,,,,,,,,,,,,,,,,,,,,,,,,,,,,,,,,,,,,,,,,,,,,,,,,,,,,,,,,,,,,,,,,,,,,,,,,,5352201,0.0,-0.33,0.0,2.06,58.480000000000004,58.480000000000004,1.0,0.64,,,,,,,,,,,,,,,,,,,,,,,,,,,,,,,,,,,,,,,,,,,,,,,,,,,,,,,,,,,,,,,,,,,,,,,,,,,,,,,,,,,,,,,,,,,,,,,,,,,,,,,,,,,,,,,,,,,,,,,,,,,,,,,,,,,,,,,,,,,,,,,,,,,,,,,,,,,,,,,,,,,,,,,,,,,,,,,,,,,,,,,,,,,,,,,,,,,,,,,,,,,,,,,,,,,,,,,,,,,,,,,,,,,,,,,,,,,,,,,,,,,,,,,,,,,,,,,,,,,,,,,,,,,,,,,,,,,,,,,,,,,,,,,,,,,,,,,,,,,,,,,,,,,,,,,,,,,,,,,,,,,,,,,,,,,,,,,,,,,,,,,,,,,,,,,,,,,,,,,,,,,,,,,,,,,,,,,,,,,,,,,,,,,,,,,,,,,,,,,,,,,,,,,,,,,,,,,,,,,,,,,5352218,-120.55598449707031,-16.72947883605957,0.0,-58.796871185302734,0.0,0.0,5352220,-130.58700561523438,-12.190484046936035,0.0,-44.47943115234375,0.0,0.0,5352222,-99.72663879394531,5.210296630859375,0.0,-0.0,0.0,0.0,5352224,0.0,0.0,0.0,0.0,0.0,0.0,,,,,,,,,,,,,,,,,,,,,,,,,,,,,,,,,,,,,,,,,,,,,,,,,,,,,,,,,,,,,,,,,,,,,,,,,,,,,,,,,,,,,,,,,,,,,,,,,,,,,,,,,,,,,,,,,,,,,,,,,,,,,,,,,,,,,,,,,,,,,,,,,,,,,,,,,,5352214,-9.026128768920898,-9.026129722595215,-75.0,-49.31712341308594,-49.3171272277832,-56.0,4.6426801681518555,4.642680644989014,5.0,0.0,8.441829681396484,0.0,,,,,,,5334350,17,,,,,,,,,,,,,,,,,,,,,,,,,,,,,,,,,,,,,
5404674,b'MNT_JSTICK_SPD\x00\x00',0.0,,,,,,,,,,,,,,,,,,,,,,,,,,,,,,,,,,,,,,,5352227,0.008390920236706734,-0.0004780379240401089,-0.0004142693942412734,0.3517192304134369,0.0641675665974617,-9.816664695739746,0,0,0.0,1,1,,,,,,,,,,,,,,,,,,,,,,,,,,,,,,,,,,,,,,,,,,,,,,,,,,,,,,,,,,,,,,,,,,,,,,,,,,,,,,,,,,,,,,,,,,,,,,,,5352201,0.0,-0.33,0.0,2.06,58.480000000000004,58.480000000000004,1.0,0.64,,,,,,,,,,,,,,,,,,,,,,,,,,,,,,,,,,,,,,,,,,,,,,,,,,,,,,,,,,,,,,,,,,,,,,,,,,,,,,,,,,,,,,,,,,,,,,,,,,,,,,,,,,,,,,,,,,,,,,,,,,,,,,,,,,,,,,,,,,,,,,,,,,,,,,,,,,,,,,,,,,,,,,,,,,,,,,,,,,,,,,,,,,,,,,,,,,,,,,,,,,,,,,,,,,,,,,,,,,,,,,,,,,,,,,,,,,,,,,,,,,,,,,,,,,,,,,,,,,,,,,,,,,,,,,,,,,,,,,,,,,,,,,,,,,,,,,,,,,,,,,,,,,,,,,,,,,,,,,,,,,,,,,,,,,,,,,,,,,,,,,,,,,,,,,,,,,,,,,,,,,,,,,,,,,,,,,,,,,,,,,,,,,,,,,,,,,,,,,,,,,,,,,,,,,,,,,,,,,,,,,,5352218,-120.55598449707031,-16.72947883605957,0.0,-58.796871185302734,0.0,0.0,5352220,-130.58700561523438,-12.190484046936035,0.0,-44.47943115234375,0.0,0.0,5352222,-99.72663879394531,5.210296630859375,0.0,-0.0,0.0,0.0,5352224,0.0,0.0,0.0,0.0,0.0,0.0,,,,,,,,,,,,,,,,,,,,,,,,,,,,,,,,,,,,,,,,,,,,,,,,,,,,,,,,,,,,,,,,,,,,,,,,,,,,,,,,,,,,,,,,,,,,,,,,,,,,,,,,,,,,,,,,,,,,,,,,,,,,,,,,,,,,,,,,,,,,,,,,,,,,,,,,,,5352214,-9.026128768920898,-9.026129722595215,-75.0,-49.31712341308594,-49.3171272277832,-56.0,4.6426801681518555,4.642680644989014,5.0,0.0,8.441829681396484,0.0,,,,,,,5334350,17,,,,,,,,,,,,,,,,,,,,,,,,,,,,,,,,,,,,,
5424734,b'THROW_MOT_START\x00',0.0,,,,,,,,,,,,,,,,,,,,,,,,,,,,,,,,,,,,,,,5592333,-0.005108599551022053,-0.0014534905785694718,0.0009002009173855186,0.38188228011131287,0.13515102863311768,-9.877102851867676,0,0,0.0,1,1,5424744,b'Frame: QUAD\x00\x00\x00\x00\x00\x00\x00\x00\x00\x00\x00\x00\x00\x00\x00\x00\x00\x00\x00\x00\x00\x00\x00\x00\x00\x00\x00\x00\x00\x00\x00\x00\x00\x00\x00\x00\x00\x00\x00\x00\x00\x00\x00\x00\x00\x00\x00\x00\x00\x00\x00\x00\x00',5532388,0,0,0,0,0,0,0,0,0,0,0,0,0,0,5532393,1005,1005,1005,1005,920,920,920,920,920,920,920,920,,,5532018,0.18380573391914368,101513.328125,30.560000000000002,-0.6464431881904602,,,,,,,,,,,,,,,,,,,,,,,,,,,,,,,,,,,,,,,,,,,,,,,,,,,,5531964,0,0,0,5000,0.0,0,5592316,0.0,-0.33,0.0,2.05,58.65,58.65,0.8,0.41000000000000003,5531983,216,-353,-338,-122,20,4,0,0,0,1,5424748,0,0,,,,,,,,,,,,,,,,,,,,,,,,,,,,,,,,,,,,,,,,,,,,,,,,,,,,,,,,,,,,,,,,,,,,,,,,,,,,,,,,,,,,,,,,,,,,,,,,,,,,,,,,,,,,,,,,,,,,,,,,,,,,,,,,,,,,,,,,,,,,,,,,,,,,,,,,,,,,,,,,,,,,,,,,,,,,,,,,,,,,,,,,,,,,,,,,,,,,,,,,,,,,,,,,,,,,,,,,,,,,,,,,,,,,,,,,,,,,,,,,,,,,,,,,,,,,,,,,,,,,,,,,,,,,,,,,,,,,,,,,,,,,,,,,,,,,,,,,,,,,,,,,,,,,,,,,,,,,,,,,,,,,,,,,,,,,,,,,,,,,,,,,,,,,,,,,,,,,,5531986,-90,50,-353,204,24,414,0,0,0,1,,,,,,,,,,,,,,,,,,,,,,,,,,,,,,,,,,,,,,,,,,5592325,22.047346115112305,-13.152772903442383,0.0,-28.976247787475586,0.0,0.0,5592327,-32.130916595458984,0.10961053520441055,0.0,-2.765193462371826,0.0,0.0,5592329,39.05626678466797,-0.8623601198196411,0.0,-0.0,0.0,0.0,5592331,0.0,0.0,0.0,0.0,0.0,0.0,,,,,,,,,,,,,,,,,,5532399,0.08814894407987595,0.09045777469873428,0.11436337977647781,0,0,0,,,,,,,,,,,,,,,,,,,,,,,,,,,,,,,,,,,,,,,,,,,,,,,,,,,,,,,,,,,,,,,,,,,,,,,,,,,,,,,,,,,,,,,,,,,,,,,,,,,,,,,,,,,,,,,,5532025,0,0,0.0,0.0,0.0,0.18,0.0,0.0,0,0,,,,,,,,5592322,109.73249816894531,109.73251342773438,-42.0,-32.86165237426758,-32.861656188964844,-2.0,46.09288787841797,46.092891693115234,0.0,0.0,10.587406158447266,0.0,,,,,,,5334350,17,,,,,,,,,,,,,,,,,,,,,,,,,,,,,,,,,,,,,
5424734,b'THROW_MOT_START\x00',0.0,,,,,,,,,,,,,,,,,,,,,,,,,,,,,,,,,,,,,,,7145857,-0.004293852020055056,0.0011872367467731237,0.0031447536312043667,0.2949472665786743,0.10483270138502121,-9.776220321655273,0,0,0.0,1,1,5424744,b'Frame: QUAD\x00\x00\x00\x00\x00\x00\x00\x00\x00\x00\x00\x00\x00\x00\x00\x00\x00\x00\x00\x00\x00\x00\x00\x00\x00\x00\x00\x00\x00\x00\x00\x00\x00\x00\x00\x00\x00\x00\x00\x00\x00\x00\x00\x00\x00\x00\x00\x00\x00\x00\x00\x00\x00',6232479,0,0,0,0,0,0,0,0,0,0,0,0,0,0,6232485,1005,1005,1005,1005,920,920,920,920,920,920,920,920,,,6232116,0.10861247777938843,101514.1875,30.560000000000002,0.06788278371095657,,,,,,,,,,,,,,,,,,,,,,,,,,,,,,,,,,,,,,,,,,,,,,,,,,,,7165237,0,0,0,5000,0.0,0,7145788,0.0,-0.02,0.0,2.21,359.90000000000003,359.90000000000003,0.17,0.03,7165261,223,-360,-335,-122,20,4,0,0,0,1,5424748,0,0,,,,,,,,,,,,,,,,,,,,,,,,,,,,,,,,,,,,,,,,,,,7145837,-0.25,1.81,59.57,0.07000000029802322,0.0,0.0,,,,,,,,,,,,,,,,,,,,,,,,,,,,,,,,,,,,,,,,,,,,,,,,,,,,,,,,,,,,,,,,,,,,,,,,,,7145808,-0.02,2.21,359.90000000000003,-0.049709200859069824,0.03637133166193962,-0.01468343660235405,-0.011182756163179874,0.0,0.0,-0.006493489257991314,0.0,0.0,0.0,7145815,0,0.0,0.0,0.0,0.0,0.0,0,0,0,0,0,0,0,7145820,0.0,0.0,0.0,0.0,0.0,0.0,0,0,0,0.0,0.0,7145829,0.0,0.0,0.0,0.0,0.0,0.10824061185121536,0,0,0,19,24576,0,0,,,,,,,,,,,,,,,,,,,,,,,,,,,,,,,,,,,,,,,,,,,,,,,,,,,,,,,,,,,,,,,,,,,,,,,,,,,,,,,,,,,,,,,,,,,,,,,,,,,,,,,,,,,,,,,,,,,,,,,,,,,,,,,,,,,,,,,,,,,,,,,,,,,,,,,,,,,,,,,,,,,,,,,,,,,,,,,,,,,,,7165264,-89,50,-352,204,24,414,0,0,0,1,,,,,,,,,,,,,,,,,,,,,,,,,,,,,,,,,,,,,,,,,,7145849,-21.62606430053711,0.44741833209991455,0.0,-2.423985481262207,0.0,0.0,7145851,1.8911871910095215,-0.7341483235359192,0.0,1.347676396369934,0.0,0.0,7145853,6.568737983703613,-0.5645491480827332,0.0,-0.0,0.0,0.0,7145854,0.0,0.0,0.0,0.0,0.0,0.0,,,,,,,,,,,,,,,,,,6232490,0.10045900195837021,0.09832806885242462,0.09315483272075653,0,0,0,,,,,,,,,,,,,,,,,,,,,,,,,,,,,,,,,,,,,,,,,,,,,,,,,,,,,,,,,,,,,,,,,,,,,,,,,,,,,,,,,,,,,,,,,,,,,,,,,,,,,,,,,,,,,,,,6232122,0,0,0.0,0.0,0.0,0.1,0.0,0.0,0,0,,,,,,,,7145843,-24.60885238647461,-24.608854293823242,-1.0,6.78550910949707,6.7855095863342285,0.0,18.01840591430664,18.018407821655273,0.0,0.0,-2.6277542114257812,0.0,,,,,,,5334350,17,,,,,,,,,,,,,,,,,,,,,,,,,,,,,,,,,,,,,
5424734,b'THROW_MOT_START\x00',0.0,,,,,,,,,,,,,,,,,,,,,,,,,,,,,,,,,,,,,,,7465512,0.0024978495202958584,0.0006960113532841206,-0.006882021203637123,0.25508806109428406,0.03869228437542915,-9.866109848022461,0,0,0.0,1,1,5424744,b'Frame: QUAD\x00\x00\x00\x00\x00\x00\x00\x00\x00\x00\x00\x00\x00\x00\x00\x00\x00\x00\x00\x00\x00\x00\x00\x00\x00\x00\x00\x00\x00\x00\x00\x00\x00\x00\x00\x00\x00\x00\x00\x00\x00\x00\x00\x00\x00\x00\x00\x00\x00\x00\x00\x00\x00',7485917,0,0,0,0,0,0,0,0,0,0,0,0,0,0,7485924,1005,1005,1005,1005,920,920,920,920,920,920,920,920,,,7485424,0.07240831851959229,101514.578125,30.54,-0.12384200841188431,,,,,,,,,,,,,,,,,,,,,,,,,,,,,,,,,,,,,,,,,,,,,,,,,,,,7485362,0,0,0,5000,0.0,0,7485940,0.0,-0.02,0.0,2.17,359.85,359.86,0.11,0.01,7485387,220,-355,-324,-122,20,4,0,0,0,1,5424748,0,0,,,,,,,,,,,,,,,,,,,,,,,,,,,,,,,,,,,,,,,,,,,7485984,-0.33,1.84,59.5,0.07000000029802322,0.0,0.0,,,,,,,,,,,,,,,,,,,,,,,,,,,,,,,,,,,,,,,,,,,,,,,,,,,,,,,,,,,,,,,,,,,,,,,,,,7485956,-0.02,2.17,359.86,-0.06244199723005295,0.05501838028430939,-0.03434025123715401,-0.02988247014582157,0.0,0.0,-0.021351685747504234,0.0,0.0,0.0,7485963,0,0.0,0.0,0.0,0.0,0.0,0,0,0,0,0,0,0,7485967,0.0,0.0,0.0,0.0,0.0,-0.11,0,0,0,0.0,0.0,7485976,0.0,0.0,0.0,0.0,0.0,0.03384455665946007,0,0,0,19,24576,0,0,,,,,,,,,,,,,,,,,,,,,,,,,,,,,,,,,,,,,,,,,,,,,,,,,,,,,,,,,,,,,,,,,,,,,,,,,,,,,,,,,,,,,,,,,,,,,,,,,,,,,,,,,,,,,,,,,,,,,,,,,,,,,,,,,,,,,,,,,,,,,,,,,,,,,,,,,,,,,,,,,,,,,,,,,,,,,,,,,,,,,7485390,-89,50,-351,204,24,414,0,0,0,1,,,,,,,,,,,,,,,,,,,,,,,,,,,,,,,,,,,,,,,,,,7485994,-42.88657760620117,0.5355958342552185,0.0,-1.261035442352295,0.0,0.0,7485996,52.196685791015625,-0.2617645859718323,0.0,1.9488804340362549,0.0,0.0,7485998,-1.1118229627609253,-0.23004160821437836,0.0,-0.0,0.0,0.0,7465509,0.0,0.0,0.0,0.0,0.0,0.0,,,,,,,,,,,,,,,,,,7485931,0.08479102700948715,0.10215403884649277,0.09902583807706833,0,0,0,,,,,,,,,,,,,,,,,,,,,,,,,,,,,,,,,,,,,,,,,,,,,,,,,,,,,,,,,,,,,,,,,,,,,,,,,,,,,,,,,,,,,,,,,,,,,,,,,,,,,,,,,,,,,,,,7485432,0,0,0.0,0.0,-0.0002135168615495786,0.07,0.0,0.0,0,0,,,,,,,,7485989,-46.45721435546875,-46.457218170166016,0.0,53.9417839050293,53.94178771972656,1.0,0.7004138231277466,0.7004138827323914,0.0,0.0,3.4768104553222656,0.0,,,,,,,5334350,17,,,,,,,,,,7372809,7,57560,,,,,,,,,,,,,,,,,,,,,,,,,
5424734,b'THROW_MOT_START\x00',0.0,,,,,,,,,,,,,,,,,,,,,,,,,,,,,,,,,,,,,,,7805429,-0.0018519951263442636,0.0030729230493307114,-0.00980233121663332,0.2630392909049988,0.0059844376519322395,-9.787381172180176,0,0,0.0,1,1,5424744,b'Frame: QUAD\x00\x00\x00\x00\x00\x00\x00\x00\x00\x00\x00\x00\x00\x00\x00\x00\x00\x00\x00\x00\x00\x00\x00\x00\x00\x00\x00\x00\x00\x00\x00\x00\x00\x00\x00\x00\x00\x00\x00\x00\x00\x00\x00\x00\x00\x00\x00\x00\x00\x00\x00\x00\x00',7785541,0,0,0,0,0,0,0,0,0,0,0,0,0,0,7785546,1005,1005,1005,1005,920,920,920,920,920,920,920,920,,,7785079,0.09747273474931717,101514.3046875,30.54,-0.02073969505727291,,,,,,,,,,,,,,,,,,,,,,,,,,,,,,,,,,,,,,,,,,,,,,,,,,,,7785026,0,0,0,5000,0.0,0,7825384,0.0,-0.06,0.0,2.08,359.81,359.82,0.07,0.01,7785047,214,-350,-327,-122,20,4,0,0,0,1,5424748,0,0,,,,,,,,,,,,,,,,,,,,,,,,,,,,,,,,,,,,,,,,,,,7805411,-0.38,1.85,59.53,0.08999999612569809,0.0,0.0,,,,,,,,,,,,,,,,,,,,,,,,,,,,,,,,,,,,,,,,,,,,,,,,,,,,,,,,,,,,,,,,,,,,,,,,,,7805392,-0.07,2.1,359.82,-0.0656006708741188,0.07127632945775986,-0.0430278442800045,-0.04818512871861458,0.0,0.0,-0.04253561049699783,0.0,0.0,0.0,7805397,0,0.0,0.0,0.0,0.0,0.0,0,0,0,0,0,0,0,7805400,0.0,0.0,0.0,0.0,0.0,-0.01,0,0,0,0.0,0.0,7805406,0.0,0.0,0.0,0.0,0.0,0.010665524750947952,0,0,0,19,24576,0,0,,,,,,,,,,,,,,,,,,,,,,,,,,,,,,,,,,,,,,,,,,,,,,,,,,,,,,,,,,,,,,,,,,,,,,,,,,,,,,,,,,,,,,,,,,,,,,,,,,,,,,,,,,,,,,,,,,,,,,,,,,,,,,,,,,,,,,,,,,,,,,,,,,,,,,,,,,,,,,,,,,,,,,,,,,,,,,,,,,,,,7785050,-89,51,-351,204,24,414,0,0,0,1,,,,,,,,,,,,,,,,,,,,,,,,,,,,,,,,,,,,,,,,,,7805422,-14.596335411071777,-0.5861366987228394,0.0,-1.3240344524383545,0.0,0.0,7805424,12.19491958618164,-0.7975123524665833,0.0,-2.6401867866516113,0.0,0.0,7805425,-57.681488037109375,0.2815748453140259,0.0,-0.0,0.0,0.0,7805427,0.0,0.0,0.0,0.0,0.0,0.0,,,,,,,,,,,,,,,,,,7785553,0.08234234899282455,0.10926671326160431,0.10668584704399109,0,0,0,,,,,,,,,,,,,,,,,,,,,,,,,,,,,,,,,,,,,,,,,,,,,,,,,,,,,,,,,,,,,,,,,,,,,,,,,,,,,,,,,,,,,,,,,,,,,,,,,,,,,,,,,,,,,,,,7785087,0,0,0.0,0.0,-0.0004109145957045257,0.09,0.0,0.0,0,0,,,,,,,,7805416,-10.688758850097656,-10.688759803771973,-1.0,17.511667251586914,17.511669158935547,-3.0,-56.161983489990234,-56.161991119384766,0.0,0.0,-1.6084671020507812,0.0,,,,,,,5334350,17,,,,,,,,,,7372809,7,57560,,,,,,,,,,,,,,,,,,,,,,,,,
5424734,b'THROW_MOT_START\x00',0.0,,,,,,,,,,,,,,,,,,,,,,,,,,,,,,,,,,,,,,,8125525,0.00020917980873491615,-0.002863493049517274,0.0015647559193894267,0.1678626388311386,0.09347905963659286,-9.7740478515625,0,0,0.0,1,1,5424744,b'Frame: QUAD\x00\x00\x00\x00\x00\x00\x00\x00\x00\x00\x00\x00\x00\x00\x00\x00\x00\x00\x00\x00\x00\x00\x00\x00\x00\x00\x00\x00\x00\x00\x00\x00\x00\x00\x00\x00\x00\x00\x00\x00\x00\x00\x00\x00\x00\x00\x00\x00\x00\x00\x00\x00\x00',8085562,0,0,0,0,0,0,0,0,0,0,0,0,0,0,8085569,1005,1005,1005,1005,920,920,920,920,920,920,920,920,,,8085116,0.025064418092370033,101515.1328125,30.54,-0.10965682566165924,,,,,,,,,,,,,,,,,,,,,,,,,,,,,,,,,,,,,,,,,,,,,,,,,,,,8085059,0,0,0,5000,0.0,0,8145504,0.0,-0.25,0.0,1.8800000000000001,59.9,59.9,0.05,0.0,8085080,222,-348,-341,-122,20,4,0,0,0,1,5424748,0,0,,,,,,,,,,,,,,,,,,,,,,,,,,,,,,,,,,,,,,,,,,,8125507,-0.41000000000000003,1.83,59.5,0.019999999552965164,0.0,0.0,,,,,,,,,,,,,,,,,,,,,,,,,,,,,,,,,,,,,,,,,,,,,,,,,,,,,,,,,,,,,,,,,,,,,,,,,,8145517,-0.25,1.8800000000000001,59.9,-0.06095726788043976,0.06579015403985977,-0.04923083633184433,-0.057533301413059235,0.0,0.0,-0.06449828296899796,0.0,0.0,0.0,8145522,0,0.0,0.0,0.0,0.0,0.0,406,0,-332,0,0,0,0,8125494,0.0,0.0,0.0,0.0,0.0,-0.03,0,0,0,-0.08,0.0,8125501,0.0,0.0,0.0,0.0,0.0,0.0034422099124640226,0,0,0,19,24741,0,0,,,,,,,,,,,,,,,,,,,,,,,,,,,,,,,,,,,,,,,,,,,,,,,,,,,,,,,,,,,,,,,,,,,,,,,,,,,,,,,,,,,,,,,,,,,,,,,,,,,,,,,,,,,,,,,,,,,,,,,,,,,,,,,,,,,,,,,,,,,,,,,,,,,,,,,,,,,,,,,,,,,,,,,,,,,,,,,,,,,,,8085083,-89,50,-351,204,24,414,0,0,0,1,,,,,,,,,,,,,,,,,,,,,,,,,,,,,,,,,,,,,,,,,,8125518,-4.766366958618164,-0.871349036693573,0.0,-2.15850830078125,0.0,0.0,8125520,2.8582067489624023,2.9087166786193848,0.0,4.0444817543029785,0.0,0.0,8125521,8.1882905960083,-0.34240755438804626,0.0,0.0,0.0,0.0,8125523,0.0,0.0,0.0,0.0,0.0,0.0,,,,,,,,,,,,,,,,,,8085645,0.11972317844629288,0.09082816541194916,0.09604661911725998,0,0,0,,,,,,,,,,,,,,,,,,,,,,,,,,,,,,,,,,,,,,,,,,,,,,,,,,,,,,,,,,,,,,,,,,,,,,,,,,,,,,,,,,,,,,,,,,,,,,,,,,,,,,,,,,,,,,,,8085124,0,0,0.0,0.0,-0.0006059258594177663,0.02,0.0,0.0,0,4,,,,,,,,8125513,1.0426265001296997,1.0426266193389893,-3.0,-16.533235549926758,-16.533235549926758,6.0,8.986279487609863,8.98628044128418,0.0,0.0,-3.1989097595214844,0.0,,,,,,,5334350,17,,,,,,,,,,7372809,7,57560,,,,,,,,,,,,,,,,,,,,,,,,,
5424734,b'THROW_MOT_START\x00',0.0,,,,,,,,,,,,,,,,,,,,,,,,,,,,,,,,,,,,,,,8445703,-0.0012960718013346195,-0.010075494647026062,0.003883528523147106,0.3344201445579529,0.11141856014728546,-9.838676452636719,0,0,0.0,1,1,5424744,b'Frame: QUAD\x00\x00\x00\x00\x00\x00\x00\x00\x00\x00\x00\x00\x00\x00\x00\x00\x00\x00\x00\x00\x00\x00\x00\x00\x00\x00\x00\x00\x00\x00\x00\x00\x00\x00\x00\x00\x00\x00\x00\x00\x00\x00\x00\x00\x00\x00\x00\x00\x00\x00\x00\x00\x00',8385971,0,0,0,0,0,0,0,0,0,0,0,0,0,0,8385976,1005,1005,1005,1005,920,920,920,920,920,920,920,920,,,8385416,0.1030426025390625,101514.234375,30.54,-0.07310457527637482,,,,,,,,,,,,,,,,,,,,,,,,,,,,,,,,,,,,,,,,,,,,,,,,,,,,8385357,0,0,0,5000,0.0,0,8465728,0.0,-0.24,0.0,1.83,59.76,59.76,0.03,0.0,8385380,217,-352,-332,-122,20,4,0,0,0,1,5424748,0,0,,,,,,,,,,,,,,,,,,,,,,,,,,,,,,,,,,,,,,,,,,,8465765,-0.43,1.81,59.33,0.09999999403953552,0.0,0.0,,,,,,,,,,,,,,,,,,,,,,,,,,,,,,,,,,,,,,,,,,,,,,,,,,,,,,,,,,,,,,,,,,,,,,,,,,8465742,-0.24,1.83,59.76,-0.05119827389717102,0.05992842838168144,-0.05902933329343796,-0.057199858129024506,0.0,0.0,-0.08228792250156403,0.0,0.0,0.0,8465747,0,0.0,0.0,0.0,0.0,0.0,406,0,-332,0,0,0,0,8465751,0.0,0.0,0.0,0.0,0.0,-0.05,0,0,0,0.99,0.0,8465759,0.0,0.0,0.0,0.01,0.0,0.0010915441671386361,0,0,0,19,24741,0,0,,,,,,,,,,,,,,,,,,,,,,,,,,,,,,,,,,,,,,,,,,,,,,,,,,,,,,,,,,,,,,,,,,,,,,,,,,,,,,,,,,,,,,,,,,,,,,,,,,,,,,,,,,,,,,,,,,,,,,,,,,,,,,,,,,,,,,,,,,,,,,,,,,,,,,,,,,,,,,,,,,,,,,,,,,,,,,,,,,,,,8385383,-89,51,-352,204,24,414,0,0,0,1,,,,,,,,,,,,,,,,,,,,,,,,,,,,,,,,,,,,,,,,,,8445695,6.876856803894043,2.1849117279052734,0.0,2.6056602001190186,0.0,0.0,8445697,-48.55725860595703,1.397759199142456,0.0,0.7264180183410645,0.0,0.0,8445699,22.366374969482422,-0.41059374809265137,0.0,0.0,0.0,0.0,8445700,0.0,0.0,0.0,0.0,0.0,0.0,,,,,,,,,,,,,,,,,,8385982,0.0897081196308136,0.1231256052851677,0.08703972399234772,0,0,0,,,,,,,,,,,,,,,,,,,,,,,,,,,,,,,,,,,,,,,,,,,,,,,,,,,,,,,,,,,,,,,,,,,,,,,,,,,,,,,,,,,,,,,,,,,,,,,,,,,,,,,,,,,,,,,,8385424,0,0,0.0,0.0,-0.0007813575211912394,0.1,0.0,0.0,0,5,,,,,,,,8445689,-7.689220905303955,-7.6892218589782715,4.0,-57.87565231323242,-57.87565612792969,2.0,21.8245906829834,21.82459259033203,0.0,0.0,3.7634849548339844,0.0,,,,,,,5334350,17,,,,,,,,,,8385821,7,57560,,,,,,,,,,,,,,,,,,,,,,,,,
5424734,b'THROW_MOT_START\x00',0.0,,,,,,,,,,,,,,,,,,,,,,,,,,,,,,,,,,,,,,,8765510,-0.01114670280367136,-0.0034224826376885176,0.005056221503764391,0.2856817841529846,0.10637275129556656,-9.739842414855957,0,0,0.0,1,1,5424744,b'Frame: QUAD\x00\x00\x00\x00\x00\x00\x00\x00\x00\x00\x00\x00\x00\x00\x00\x00\x00\x00\x00\x00\x00\x00\x00\x00\x00\x00\x00\x00\x00\x00\x00\x00\x00\x00\x00\x00\x00\x00\x00\x00\x00\x00\x00\x00\x00\x00\x00\x00\x00\x00\x00\x00\x00',8786313,0,0,0,0,0,0,0,0,0,0,0,0,0,0,8786319,1005,1005,1005,1005,920,920,920,920,920,920,920,920,,,8785917,0.0027849352918565273,101515.3984375,30.55,0.218443363904953,,,,,,,,,,,,,,,,,,,,,,,,,,,,,,,,,,,,,,,,,,,,,,,,,,,,8785864,0,0,0,5000,0.0,0,8786333,0.0,-0.26,0.0,1.8,59.57,59.57,0.02,0.0,8785885,215,-347,-320,-122,20,4,0,0,0,1,5424748,0,0,,,,,,,,,,,,,,,,,,,,,,,,,,,,,,,,,,,,,,,,,,,8765491,-0.46,1.87,59.4,0.11999999731779099,0.0,0.0,,,,,,,,,,,,,,,,,,,,,,,,,,,,,,,,,,,,,,,,,,,,,,,,,,,,,,,,,,,,,,,,,,,,,,,,,,8786345,-0.26,1.8,59.57,-0.046899568289518356,0.045509614050388336,-0.06395073235034943,-0.052524760365486145,0.0,0.0,-0.09676579385995865,0.0,0.0,0.0,8765474,0,0.0,0.0,0.0,0.0,0.0,406,0,-332,0,0,0,0,8765478,0.0,0.0,0.0,0.0,0.0,-0.04,0,0,0,-0.22,0.0,8765485,0.0,0.0,0.0,0.0,0.0,0.0004674139781855047,0,0,0,19,24741,0,0,,,,,,,,,,,,,,,,,,,,,,,,,,,,,,,,,,,,,,,,,,,,,,,,,,,,,,,,,,,,,,,,,,,,,,,,,,,,,,,,,,,,,,,,,,,,,,,,,,,,,,,,,,,,,,,,,,,,,,,,,,,,,,,,,,,,,,,,,,,,,,,,,,,,,,,,,,,,,,,,,,,,,,,,,,,,,,,,,,,,,8785888,-88,50,-350,204,24,414,0,0,0,1,,,,,,,,,,,,,,,,,,,,,,,,,,,,,,,,,,,,,,,,,,8765502,-60.211669921875,0.6129408478736877,0.0,-3.465552806854248,0.0,0.0,8765504,-0.4731782376766205,2.890799045562744,0.0,8.720105171203613,0.0,0.0,8765506,29.41069984436035,-0.3958578407764435,0.0,0.0,0.0,0.0,8765507,0.0,0.0,0.0,0.0,0.0,0.0,,,,,,,,,,,,,,,,,,8786325,0.09450283646583557,0.0971420407295227,0.09988126158714294,0,0,0,,,,,,,,,,,,,,,,,,,,,,,,,,,,,,,,,,,,,,,,,,,,,,,,,,,,,,,,,,,,,,,,,,,,,,,,,,,,,,,,,,,,,,,,,,,,,,,,,,,,,,,,,,,,,,,,8785924,0,0,0.0,0.0,-0.0009676579502411187,0.0,0.0,0.0,0,6,,,,,,,,8765496,-64.29794311523438,-64.29794311523438,-2.0,-19.74517250061035,-19.745174407958984,11.0,28.566316604614258,28.566320419311523,0.0,0.0,-6.3201904296875,0.0,,,,,,,5334350,17,,,,,,,,,,8385821,7,57560,,,,,,,,,,,,,,,,,,,,,,,,,
5424734,b'THROW_MOT_START\x00',0.0,,,,,,,,,,,,,,,,,,,,,,,,,,,,,,,,,,,,,,,9086663,0.003330712206661701,0.0012612399877980351,0.0016698664985597134,0.34618207812309265,-0.03976960480213165,-9.91169261932373,0,0,0.0,1,1,5424744,b'Frame: QUAD\x00\x00\x00\x00\x00\x00\x00\x00\x00\x00\x00\x00\x00\x00\x00\x00\x00\x00\x00\x00\x00\x00\x00\x00\x00\x00\x00\x00\x00\x00\x00\x00\x00\x00\x00\x00\x00\x00\x00\x00\x00\x00\x00\x00\x00\x00\x00\x00\x00\x00\x00\x00\x00',9086524,0,0,0,0,0,0,0,0,0,0,0,0,0,0,9086530,1005,1005,1005,1005,920,920,920,920,920,920,920,920,,,9086092,0.030634287744760513,101515.0859375,30.54,-0.6805742979049683,,,,,,,,,,,,,,,,,,,,,,,,,,,,,,,,,,,,,,,,,,,,,,,,,,,,9086039,0,0,0,5000,0.0,0,9106399,0.0,-0.3,0.0,1.82,59.46,59.46,0.02,0.0,9086059,220,-348,-342,-122,20,4,0,0,0,1,5424748,0,0,,,,,,,,,,,,,,,,,,,,,,,,,,,,,,,,,,,,,,,,,,,9086645,-0.41000000000000003,1.81,59.300000000000004,0.029999999329447746,0.0,0.0,,,,,,,,,,,,,,,,,,,,,,,,,,,,,,,,,,,,,,,,,,,,,,,,,,,,,,,,,,,,,,,,,,,,,,,,,,9106412,-0.3,1.82,59.46,-0.03221271187067032,0.041161783039569855,-0.07544355094432831,-0.05250734090805054,0.0,0.0,-0.11274883151054382,0.0,0.0,0.0,9106417,0,0.0,0.0,0.0,0.0,0.0,406,0,-332,0,0,0,0,9106420,0.0,0.0,0.0,0.0,0.0,-0.21,0,0,0,0.27,0.0,9106425,0.0,0.0,0.01,0.0,0.0,0.0002518335822969675,0,0,0,19,24741,0,0,,,,,,,,,,,,,,,,,,,,,,,,,,,,,,,,,,,,,,,,,,,,,,,,,,,,,,,,,,,,,,,,,,,,,,,,,,,,,,,,,,,,,,,,,,,,,,,,,,,,,,,,,,,,,,,,,,,,,,,,,,,,,,,,,,,,,,,,,,,,,,,,,,,,,,,,,,,,,,,,,,,,,,,,,,,,,,,,,,,,,9086062,-89,50,-350,204,24,414,0,0,0,1,,,,,,,,,,,,,,,,,,,,,,,,,,,,,,,,,,,,,,,,,,9086655,14.9507474899292,-0.5048253536224365,0.0,-0.6997714042663574,0.0,0.0,9086657,10.516754150390625,0.5015596151351929,0.0,0.3273490071296692,0.0,0.0,9086659,1.0394859313964844,-0.4544731080532074,0.0,-0.0,0.0,0.0,9086661,0.0,0.0,0.0,0.0,0.0,0.0,,,,,,,,,,,,,,,,,,9086537,0.07953039556741714,0.10874299705028534,0.08975217491388321,0,0,0,,,,,,,,,,,,,,,,,,,,,,,,,,,,,,,,,,,,,,,,,,,,,,,,,,,,,,,,,,,,,,,,,,,,,,,,,,,,,,,,,,,,,,,,,,,,,,,,,,,,,,,,,,,,,,,,9086099,0,0,0.0,0.0,-0.001119109452702105,0.03,0.0,0.0,0,7,,,,,,,,9086650,18.31624984741211,18.316251754760742,-1.0,7.1730241775512695,7.173024654388428,0.0,9.274039268493652,9.274040222167969,0.0,0.0,10.868072509765625,0.0,,,,,,,5334350,17,,,,,,,,,,8385821,7,57560,,,,,,,,,,,,,,,,,,,,,,,,,
5424734,b'THROW_MOT_START\x00',0.0,,,,,,,,,,,,,,,,,,,,,,,,,,,,,,,,,,,,,,,9406650,0.0038601220585405827,-0.004306279122829437,0.004545819945633411,0.3876269459724426,0.061400897800922394,-9.905529975891113,0,0,0.0,1,1,5424744,b'Frame: QUAD\x00\x00\x00\x00\x00\x00\x00\x00\x00\x00\x00\x00\x00\x00\x00\x00\x00\x00\x00\x00\x00\x00\x00\x00\x00\x00\x00\x00\x00\x00\x00\x00\x00\x00\x00\x00\x00\x00\x00\x00\x00\x00\x00\x00\x00\x00\x00\x00\x00\x00\x00\x00\x00',9386703,0,0,0,0,0,0,0,0,0,0,0,0,0,0,9386709,1005,1005,1005,1005,920,920,920,920,920,920,920,920,,,9386182,0.10861247777938843,101514.1875,30.54,0.5277743339538574,,,,,,,,,,,,,,,,,,,,,,,,,,,,,,,,,,,,,,,,,,,,,,,,,,,,9386126,0,0,0,5000,0.0,0,9426642,0.0,-0.35000000000000003,0.0,1.81,59.370000000000005,59.370000000000005,0.01,0.0,9386148,219,-350,-338,-122,20,4,0,0,0,1,5424748,0,0,,,,,,,,,,,,,,,,,,,,,,,,,,,,,,,,,,,,,,,,,,,9426675,-0.36,1.9000000000000001,59.160000000000004,0.09999999403953552,0.0,0.0,,,,,,,,,,,,,,,,,,,,,,,,,,,,,,,,,,,,,,,,,,,,,,,,,,,,,,,,,,,,,,,,,,,,,,,,,,9426656,-0.35000000000000003,1.81,59.370000000000005,-0.0189199261367321,0.03220376372337341,-0.08142479509115219,-0.041432783007621765,0.0,0.0,-0.12171401083469391,0.0,0.0,0.0,9426661,0,0.0,0.0,0.0,0.0,0.0,406,0,-332,0,0,0,0,9426664,0.0,0.0,0.0,0.0,0.0,0.01,0,0,0,1.42,0.0,9426669,0.0,0.0,0.0,0.02,0.0,0.0001540358061902225,0,0,0,19,24741,0,0,,,,,,,,,,,,,,,,,,,,,,,,,,,,,,,,,,,,,,,,,,,,,,,,,,,,,,,,,,,,,,,,,,,,,,,,,,,,,,,,,,,,,,,,,,,,,,,,,,,,,,,,,,,,,,,,,,,,,,,,,,,,,,,,,,,,,,,,,,,,,,,,,,,,,,,,,,,,,,,,,,,,,,,,,,,,,,,,,,,,,9386151,-88,50,-351,204,24,414,0,0,0,1,,,,,,,,,,,,,,,,,,,,,,,,,,,,,,,,,,,,,,,,,,9406642,14.047325134277344,-1.0622118711471558,0.0,-0.43989089131355286,0.0,0.0,9406644,-22.83543586730957,0.2726942300796509,0.0,1.054410696029663,0.0,0.0,9406646,36.400779724121094,-0.07927849143743515,0.0,0.0,0.0,0.0,9406647,0.0,0.0,0.0,0.0,0.0,0.0,,,,,,,,,,,,,,,,,,9386716,0.0825524851679802,0.09397977590560913,0.08852808177471161,0,0,0,,,,,,,,,,,,,,,,,,,,,,,,,,,,,,,,,,,,,,,,,,,,,,,,,,,,,,,,,,,,,,,,,,,,,,,,,,,,,,,,,,,,,,,,,,,,,,,,,,,,,,,,,,,,,,,,9386189,0,0,0.0,0.0,-0.001205912441946566,0.1,0.0,0.0,0,8,,,,,,,,9426680,31.255002975463867,31.2550048828125,0.0,13.390844345092773,13.39084529876709,-1.0,6.397002696990967,6.397003173828125,0.0,0.0,0.8440017700195312,0.0,,,,,,,5334350,17,,,,,,,,,,9386548,7,57560,,,,,,,,,,,,,,,,,,,,,,,,,
5424734,b'THROW_MOT_START\x00',0.0,,,,,,,,,,,,,,,,,,,,,,,,,,,,,,,,,,,,,,,9726770,-0.003003479214385152,0.0009688350255601108,0.0015626291278749704,0.3346763551235199,0.05668250471353531,-9.853852272033691,0,0,0.0,1,1,5424744,b'Frame: QUAD\x00\x00\x00\x00\x00\x00\x00\x00\x00\x00\x00\x00\x00\x00\x00\x00\x00\x00\x00\x00\x00\x00\x00\x00\x00\x00\x00\x00\x00\x00\x00\x00\x00\x00\x00\x00\x00\x00\x00\x00\x00\x00\x00\x00\x00\x00\x00\x00\x00\x00\x00\x00\x00',9686754,0,0,0,0,0,0,0,0,0,0,0,0,0,0,9686760,1005,1005,1005,1005,920,920,920,920,920,920,920,920,,,9686254,-0.11696728318929672,101516.7890625,30.54,-0.23410862684249878,,,,,,,,,,,,,,,,,,,,,,,,,,,,,,,,,,,,,,,,,,,,,,,,,,,,9686199,0,0,0,5000,0.0,0,9746654,0.0,-0.4,0.0,1.81,59.31,59.31,0.01,0.0,9686219,214,-348,-326,-122,20,4,0,0,0,1,5424748,0,0,,,,,,,,,,,,,,,,,,,,,,,,,,,,,,,,,,,,,,,,,,,9746758,-0.36,1.8800000000000001,59.21,-0.10999999940395355,0.0,0.0,,,,,,,,,,,,,,,,,,,,,,,,,,,,,,,,,,,,,,,,,,,,,,,,,,,,,,,,,,,,,,,,,,,,,,,,,,9746667,-0.4,1.81,59.31,-0.01160534005612135,0.021654702723026276,-0.083513543009758,-0.03429362177848816,0.0,0.0,-0.1298345923423767,0.01,0.0,0.0,9746672,0,0.0,0.0,0.0,0.0,0.0,406,0,-332,0,0,0,0,9746675,0.0,0.0,0.0,0.0,0.0,-0.17,0,0,0,0.66,0.0,9746750,0.0,0.0,0.01,0.01,0.0,9.479573782300577e-05,0,0,0,19,24741,0,0,,,,,,,,,,,,,,,,,,,,,,,,,,,,,,,,,,,,,,,,,,,,,,,,,,,,,,,,,,,,,,,,,,,,,,,,,,,,,,,,,,,,,,,,,,,,,,,,,,,,,,,,,,,,,,,,,,,,,,,,,,,,,,,,,,,,,,,,,,,,,,,,,,,,,,,,,,,,,,,,,,,,,,,,,,,,,,,,,,,,,9686222,-88,50,-351,204,24,414,0,0,0,1,,,,,,,,,,,,,,,,,,,,,,,,,,,,,,,,,,,,,,,,,,9746769,-20.70950698852539,-2.1003811359405518,0.0,-4.985018730163574,0.0,0.0,9746771,7.427839756011963,1.3027864694595337,0.0,2.3681857585906982,0.0,0.0,9746773,11.757133483886719,0.17603404819965363,0.0,0.0,0.0,0.0,9726768,0.0,0.0,0.0,0.0,0.0,0.0,,,,,,,,,,,,,,,,,,9686767,0.07948744297027588,0.1122293695807457,0.09806670248508453,0,0,0,,,,,,,,,,,,,,,,,,,,,,,,,,,,,,,,,,,,,,,,,,,,,,,,,,,,,,,,,,,,,,,,,,,,,,,,,,,,,,,,,,,,,,,,,,,,,,,,,,,,,,,,,,,,,,,,9686263,0,0,0.0,0.0,-0.0012862150324508548,-0.11,0.0,0.0,0,8,,,,,,,,9746763,-6.706965923309326,-6.706966400146484,-7.0,-1.2574023008346558,-1.2574024200439453,3.0,-5.121713638305664,-5.121714115142822,0.0,0.0,8.5906982421875,0.0,,,,,,,5334350,17,,,,,,,,,,9386548,7,57560,,,,,,,,,,,,,,,,,,,,,,,,,
5424734,b'THROW_MOT_START\x00',0.0,,,,,,,,,,,,,,,,,,,,,,,,,,,,,,,,,,,,,,,10066482,-0.006199144292622805,0.010815468616783619,-0.00021335422934498638,0.34892863035202026,0.12631815671920776,-9.816287994384766,0,0,0.0,1,1,5424744,b'Frame: QUAD\x00\x00\x00\x00\x00\x00\x00\x00\x00\x00\x00\x00\x00\x00\x00\x00\x00\x00\x00\x00\x00\x00\x00\x00\x00\x00\x00\x00\x00\x00\x00\x00\x00\x00\x00\x00\x00\x00\x00\x00\x00\x00\x00\x00\x00\x00\x00\x00\x00\x00\x00\x00\x00',9986488,0,0,0,0,0,0,0,0,0,0,0,0,0,0,9986494,1005,1005,1005,1005,920,920,920,920,920,920,920,920,,,9986101,0.05848364159464836,101514.7421875,30.54,-0.19929693639278412,,,,,,,,,,,,,,,,,,,,,,,,,,,,,,,,,,,,,,,,,,,,,,,,,,,,10086042,0,0,0,5000,0.0,0,10066426,0.0,-0.44,0.0,1.83,59.22,59.22,0.0,0.01,9986066,216,-352,-329,-122,20,4,0,0,0,1,5424748,0,0,,,,,,,,,,,,,,,,,,,,,,,,,,,,,,,,,,,,,,,,,,,10066464,-0.38,1.84,59.34,0.04999999701976776,0.0,0.0,,,,,,,,,,,,,,,,,,,,,,,,,,,,,,,,,,,,,,,,,,,,,,,,,,,,,,,,,,,,,,,,,,,,,,,,,,10066440,-0.44,1.83,59.22,0.002225954318419099,0.012971869669854641,-0.09167889505624771,-0.024824246764183044,0.0,0.0,-0.13435716927051544,0.01,0.0,0.0,10066446,0,0.0,0.0,0.0,0.0,0.0,406,0,-332,0,0,0,0,10066449,0.0,0.0,0.0,0.0,0.0,-0.08,0,0,0,-0.91,0.0,10066458,0.0,0.0,0.0,0.01,0.0,7.425258081639186e-05,0,0,0,19,24741,0,0,,,,,,,,,,,,,,,,,,,,,,,,,,,,,,,,,,,,,,,,,,,,,,,,,,,,,,,,,,,,,,,,,,,,,,,,,,,,,,,,,,,,,,,,,,,,,,,,,,,,,,,,,,,,,,,,,,,,,,,,,,,,,,,,,,,,,,,,,,,,,,,,,,,,,,,,,,,,,,,,,,,,,,,,,,,,,,,,,,,,,9986068,-88,50,-352,204,24,414,0,0,0,1,,,,,,,,,,,,,,,,,,,,,,,,,,,,,,,,,,,,,,,,,,10066474,-16.01131820678711,3.0789620876312256,0.0,5.6425981521606445,0.0,0.0,10066476,54.35361099243164,-1.1967580318450928,0.0,0.041664063930511475,0.0,0.0,10066478,10.431918144226074,-0.06557829678058624,0.0,0.0,0.0,0.0,10066479,0.0,0.0,0.0,0.0,0.0,0.0,,,,,,,,,,,,,,,,,,9986501,0.08896267414093018,0.12195225059986115,0.09552488476037979,0,0,0,,,,,,,,,,,,,,,,,,,,,,,,,,,,,,,,,,,,,,,,,,,,,,,,,,,,,,,,,,,,,,,,,,,,,,,,,,,,,,,,,,,,,,,,,,,,,,,,,,,,,,,,,,,,,,,,9986108,0,0,0.0,0.0,-0.001334396773017943,0.05,0.0,0.0,0,8,,,,,,,,10066469,-36.5377311706543,-36.5377311706543,8.0,62.33199691772461,62.33200454711914,-1.0,-1.5785750150680542,-1.5785751342773438,0.0,0.0,1.0388374328613281,0.0,,,,,,,5334350,17,,,,,,,,,,9386548,7,57560,,,,,,,,,,,,,,,,,,,,,,,,,
5424734,b'THROW_MOT_START\x00',0.0,,,,,,,,,,,,,,,,,,,,,,,,,,,,,,,,,,,,,,,10388872,-0.004558714106678963,-0.0042019737884402275,-0.010458439588546753,0.23622086644172668,-0.002011413685977459,-9.947205543518066,0,0,0.0,1,1,5424744,b'Frame: QUAD\x00\x00\x00\x00\x00\x00\x00\x00\x00\x00\x00\x00\x00\x00\x00\x00\x00\x00\x00\x00\x00\x00\x00\x00\x00\x00\x00\x00\x00\x00\x00\x00\x00\x00\x00\x00\x00\x00\x00\x00\x00\x00\x00\x00\x00\x00\x00\x00\x00\x00\x00\x00\x00',10409114,0,0,0,0,0,0,0,0,0,0,0,0,0,0,10409119,1005,1005,1005,1005,920,920,920,920,920,920,920,920,,,10408528,-0.02227948233485222,101515.6953125,30.54,0.11368650197982788,,,,,,,,,,,,,,,,,,,,,,,,,,,,,,,,,,,,,,,,,,,,,,,,,,,,10408470,0,0,0,5000,0.0,0,10409133,0.0,-0.45,0.0,1.84,59.22,59.22,0.0,0.0,10408491,224,-347,-337,-122,20,4,0,0,0,1,5424748,0,0,,,,,,,,,,,,,,,,,,,,,,,,,,,,,,,,,,,,,,,,,,,10409169,-0.35000000000000003,1.84,59.27,-0.019999999552965164,0.0,0.0,,,,,,,,,,,,,,,,,,,,,,,,,,,,,,,,,,,,,,,,,,,,,,,,,,,,,,,,,,,,,,,,,,,,,,,,,,10409144,-0.45,1.84,59.22,0.011910351924598217,0.0020846116822212934,-0.09922827780246735,-0.01397472620010376,0.0,0.0,-0.13468463718891144,0.0,0.0,0.0,10409151,0,0.0,0.0,0.0,0.0,0.0,406,0,-332,0,0,0,0,10409154,0.0,0.0,0.0,0.0,0.0,-0.12,0,0,0,0.1,0.0,10409162,0.0,0.0,0.0,0.0,0.0,6.972703704377636e-05,0,0,0,19,24741,0,0,,,,,,,,,,,,,,,,,,,,,,,,,,,,,,,,,,,,,,,,,,,,,,,,,,,,,,,,,,,,,,,,,,,,,,,,,,,,,,,,,,,,,,,,,,,,,,,,,,,,,,,,,,,,,,,,,,,,,,,,,,,,,,,,,,,,,,,,,,,,,,,,,,,,,,,,,,,,,,,,,,,,,,,,,,,,,,,,,,,,,10408494,-88,50,-352,204,24,414,0,0,0,1,,,,,,,,,,,,,,,,,,,,,,,,,,,,,,,,,,,,,,,,,,10409178,25.983455657958984,-0.9304846525192261,0.0,0.6715527772903442,0.0,0.0,10388866,-30.355907440185547,-1.0175399780273438,0.0,-3.8633100986480713,0.0,0.0,10388867,-56.95064163208008,0.6120154857635498,0.0,-0.0,0.0,0.0,10388869,0.0,0.0,0.0,0.0,0.0,0.0,,,,,,,,,,,,,,,,,,10409125,0.10186659544706345,0.09838796406984329,0.10215817391872406,0,0,0,,,,,,,,,,,,,,,,,,,,,,,,,,,,,,,,,,,,,,,,,,,,,,,,,,,,,,,,,,,,,,,,,,,,,,,,,,,,,,,,,,,,,,,,,,,,,,,,,,,,,,,,,,,,,,,,10408536,0,0,0.0,0.0,-0.0013468463439494371,-0.02,0.0,0.0,0,9,,,,,,,,10409173,32.18668746948242,32.18668746948242,0.0,64.20147705078125,64.20147705078125,0.0,-14.0377197265625,-14.037721633911133,0.0,0.0,2.357006072998047,0.0,,,,,,,5334350,17,,,,,,,,,,10409026,7,57560,,,,,,,,,,,,,,,,,,,,,,,,,
5424734,b'THROW_MOT_START\x00',0.0,,,,,,,,,,,,,,,,,,,,,,,,,,,,,,,,,,,,,,,10713230,-0.002059940481558442,-0.0074401437304914,-0.002863287227228284,0.3401063084602356,0.16927079856395721,-9.810592651367188,0,0,0.0,1,1,5424744,b'Frame: QUAD\x00\x00\x00\x00\x00\x00\x00\x00\x00\x00\x00\x00\x00\x00\x00\x00\x00\x00\x00\x00\x00\x00\x00\x00\x00\x00\x00\x00\x00\x00\x00\x00\x00\x00\x00\x00\x00\x00\x00\x00\x00\x00\x00\x00\x00\x00\x00\x00\x00\x00\x00\x00\x00',10713155,0,0,0,0,0,0,0,0,0,0,0,0,0,0,10713161,1005,1005,1005,1005,920,920,920,920,920,920,920,920,,,10712733,-0.027849353849887848,101515.7578125,30.53,0.29029715061187744,,,,,,,,,,,,,,,,,,,,,,,,,,,,,,,,,,,,,,,,,,,,,,,,,,,,10712606,0,0,0,5000,0.0,0,10732972,0.0,-0.49,0.0,1.84,59.2,59.2,0.0,0.0,10712628,214,-352,-323,-122,20,4,0,0,0,1,5424748,0,0,,,,,,,,,,,,,,,,,,,,,,,,,,,,,,,,,,,,,,,,,,,10733007,-0.38,1.78,59.28,-0.019999999552965164,0.0,0.0,,,,,,,,,,,,,,,,,,,,,,,,,,,,,,,,,,,,,,,,,,,,,,,,,,,,,,,,,,,,,,,,,,,,,,,,,,10732986,-0.49,1.84,59.2,0.014121375046670437,-0.004851524718105793,-0.09022026509046555,-0.006319254636764526,0.0,0.0,-0.1337367594242096,0.0,0.0,0.0,10732992,0,0.0,0.0,0.0,0.0,0.0,406,0,-332,0,0,0,0,10732995,0.0,0.0,0.0,0.0,0.0,0.01,0,0,0,-0.27,0.0,10733001,0.0,0.0,0.0,0.0,0.0,7.951968291308731e-05,0,0,0,19,24741,0,0,,,,,,,,,,,,,,,,,,,,,,,,,,,,,,,,,,,,,,,,,,,,,,,,,,,,,,,,,,,,,,,,,,,,,,,,,,,,,,,,,,,,,,,,,,,,,,,,,,,,,,,,,,,,,,,,,,,,,,,,,,,,,,,,,,,,,,,,,,,,,,,,,,,,,,,,,,,,,,,,,,,,,,,,,,,,,,,,,,,,,10712631,-89,51,-351,204,24,414,0,0,0,1,,,,,,,,,,,,,,,,,,,,,,,,,,,,,,,,,,,,,,,,,,10733017,2.3725533485412598,-2.047264575958252,0.0,-3.2882869243621826,0.0,0.0,10733019,13.376198768615723,-1.147049903869629,0.0,-1.4335919618606567,0.0,0.0,10733021,-13.158470153808594,0.040908075869083405,0.0,0.0,0.0,0.0,10733023,0.0,0.0,0.0,0.0,0.0,0.0,,,,,,,,,,,,,,,,,,10713168,0.08394801616668701,0.12356902658939362,0.10621899366378784,0,0,0,,,,,,,,,,,,,,,,,,,,,,,,,,,,,,,,,,,,,,,,,,,,,,,,,,,,,,,,,,,,,,,,,,,,,,,,,,,,,,,,,,,,,,,,,,,,,,,,,,,,,,,,,,,,,,,,10712743,0,0,0.0,0.0,-0.001337131834588945,-0.02,0.0,0.0,0,9,,,,,,,,10733012,16.02098274230957,16.020984649658203,-5.0,21.0231990814209,21.02320098876953,-2.0,-17.21170425415039,-17.211706161499023,0.0,0.0,3.9960861206054688,0.0,,,,,,,5334350,17,,,,,,,,,,10409026,7,57560,,,,,,,,,,,,,,,,,,,,,,,,,
5424734,b'THROW_MOT_START\x00',0.0,,,,,,,,,,,,,,,,,,,,,,,,,,,,,,,,,,,,,,,11053040,0.003285881131887436,-0.005680580623447895,0.003079118672758341,0.43062883615493774,-0.045620959252119064,-9.871131896972656,0,0,0.0,1,1,5424744,b'Frame: QUAD\x00\x00\x00\x00\x00\x00\x00\x00\x00\x00\x00\x00\x00\x00\x00\x00\x00\x00\x00\x00\x00\x00\x00\x00\x00\x00\x00\x00\x00\x00\x00\x00\x00\x00\x00\x00\x00\x00\x00\x00\x00\x00\x00\x00\x00\x00\x00\x00\x00\x00\x00\x00\x00',11013136,0,0,0,0,0,0,0,0,0,0,0,0,0,0,11013144,1005,1005,1005,1005,920,920,920,920,920,920,920,920,,,11012595,0.06962338089942932,101514.6328125,30.54,-0.4170602262020111,,,,,,,,,,,,,,,,,,,,,,,,,,,,,,,,,,,,,,,,,,,,,,,,,,,,11012500,0,0,0,5000,0.0,0,11072992,0.0,-0.47000000000000003,0.0,1.81,59.19,59.19,0.0,0.0,11012560,222,-350,-329,-122,20,4,0,0,0,1,5424748,0,0,,,,,,,,,,,,,,,,,,,,,,,,,,,,,,,,,,,,,,,,,,,11053022,-0.44,1.77,59.36,0.05999999865889549,0.0,0.0,,,,,,,,,,,,,,,,,,,,,,,,,,,,,,,,,,,,,,,,,,,,,,,,,,,,,,,,,,,,,,,,,,,,,,,,,,11073006,-0.47000000000000003,1.81,59.19,0.01877276971936226,-0.003121207468211651,-0.10040254890918732,-0.01271018385887146,0.0,0.0,-0.1397780179977417,0.0,0.0,0.0,11053005,0,0.0,0.0,0.0,0.0,0.0,406,0,-332,0,0,0,0,11053009,0.0,0.0,0.0,0.0,0.0,-0.09,0,0,0,-0.39,0.0,11053015,0.0,0.0,0.0,0.0,0.0,9.269244037568569e-05,0,0,0,19,24741,0,0,,,,,,,,,,,,,,,,,,,,,,,,,,,,,,,,,,,,,,,,,,,,,,,,,,,,,,,,,,,,,,,,,,,,,,,,,,,,,,,,,,,,,,,,,,,,,,,,,,,,,,,,,,,,,,,,,,,,,,,,,,,,,,,,,,,,,,,,,,,,,,,,,,,,,,,,,,,,,,,,,,,,,,,,,,,,,,,,,,,,,11012563,-90,50,-350,204,24,414,0,0,0,1,,,,,,,,,,,,,,,,,,,,,,,,,,,,,,,,,,,,,,,,,,11053033,14.443039894104004,-0.6691008806228638,0.0,-0.14926539361476898,0.0,0.0,11053035,-25.130983352661133,1.0280566215515137,0.0,0.6591910719871521,0.0,0.0,11053036,24.223159790039062,-0.13567453622817993,0.0,0.0,0.0,0.0,11053038,0.0,0.0,0.0,0.0,0.0,0.0,,,,,,,,,,,,,,,,,,11013151,0.09473847597837448,0.09391020983457565,0.09527982026338577,0,0,0,,,,,,,,,,,,,,,,,,,,,,,,,,,,,,,,,,,,,,,,,,,,,,,,,,,,,,,,,,,,,,,,,,,,,,,,,,,,,,,,,,,,,,,,,,,,,,,,,,,,,,,,,,,,,,,,11012603,0,0,0.0,0.0,-0.0013839555904269218,0.06,0.0,0.0,0,9,,,,,,,,11053027,18.903711318969727,18.90371322631836,0.0,-31.98469352722168,-31.984695434570312,1.0,17.967802047729492,17.967803955078125,0.0,0.0,6.285285949707031,0.0,,,,,,,5334350,17,,,,,,,,,,10409026,7,57560,,,,,,,,,,,,,,,,,,,,,,,,,
5424734,b'THROW_MOT_START\x00',0.0,,,,,,,,,,,,,,,,,,,,,,,,,,,,,,,,,,,,,,,11373024,-0.0010810112580657005,0.0004749073414131999,-0.005402081646025181,0.2900541424751282,0.028708718717098236,-9.880451202392578,0,0,0.0,1,1,5424744,b'Frame: QUAD\x00\x00\x00\x00\x00\x00\x00\x00\x00\x00\x00\x00\x00\x00\x00\x00\x00\x00\x00\x00\x00\x00\x00\x00\x00\x00\x00\x00\x00\x00\x00\x00\x00\x00\x00\x00\x00\x00\x00\x00\x00\x00\x00\x00\x00\x00\x00\x00\x00\x00\x00\x00\x00',11313165,0,0,0,0,0,0,0,0,0,0,0,0,0,0,11313170,1005,1005,1005,1005,920,920,920,920,920,920,920,920,,,11312705,0.027849353849887848,101515.1015625,30.54,0.026021521538496017,,,,,,,,,,,,,,,,,,,,,,,,,,,,,,,,,,,,,,,,,,,,,,,,,,,,11312647,0,0,0,5000,0.0,0,11392858,0.0,-0.48,0.0,1.81,59.13,59.13,0.0,0.0,11312671,222,-346,-337,-122,20,4,0,0,0,1,5424748,0,0,,,,,,,,,,,,,,,,,,,,,,,,,,,,,,,,,,,,,,,,,,,11373007,-0.39,1.87,59.19,0.019999999552965164,0.0,0.0,,,,,,,,,,,,,,,,,,,,,,,,,,,,,,,,,,,,,,,,,,,,,,,,,,,,,,,,,,,,,,,,,,,,,,,,,,11392872,-0.48,1.81,59.13,0.02660851739346981,-0.007241848856210709,-0.09628543257713318,-0.01576864719390869,0.0,0.0,-0.14586028456687927,0.0,0.0,0.0,11392877,-1,0.0,0.0,0.0,0.0,0.0,406,0,-332,0,0,0,0,11392880,0.0,0.0,0.0,0.0,0.0,-0.11,0,0,0,0.05,0.0,11392887,0.0,0.0,0.0,0.0,0.0,7.787060167174786e-05,0,0,0,19,24741,0,0,,,,,,,,,,,,,,,,,,,,,,,,,,,,,,,,,,,,,,,,,,,,,,,,,,,,,,,,,,,,,,,,,,,,,,,,,,,,,,,,,,,,,,,,,,,,,,,,,,,,,,,,,,,,,,,,,,,,,,,,,,,,,,,,,,,,,,,,,,,,,,,,,,,,,,,,,,,,,,,,,,,,,,,,,,,,,,,,,,,,,11312674,-89,50,-351,204,24,414,0,0,0,1,,,,,,,,,,,,,,,,,,,,,,,,,,,,,,,,,,,,,,,,,,11373017,-8.268564224243164,-0.3721145987510681,0.0,-0.9503844380378723,0.0,0.0,11373019,17.0577392578125,2.0820586681365967,0.0,4.375974655151367,0.0,0.0,11373021,-46.98955535888672,-0.32527679204940796,0.0,-0.0,0.0,0.0,11373022,0.0,0.0,0.0,0.0,0.0,0.0,,,,,,,,,,,,,,,,,,11313177,0.10095766186714172,0.08897729218006134,0.09945366531610489,0,0,0,,,,,,,,,,,,,,,,,,,,,,,,,,,,,,,,,,,,,,,,,,,,,,,,,,,,,,,,,,,,,,,,,,,,,,,,,,,,,,,,,,,,,,,,,,,,,,,,,,,,,,,,,,,,,,,,11312713,0,0,0.0,0.0,-0.00144589738920331,0.02,0.0,0.0,0,9,,,,,,,,11373012,-5.787799835205078,-5.787800312042236,-1.0,3.1773478984832764,3.1773481369018555,6.0,-30.467073440551758,-30.46707534790039,0.0,0.0,6.689357757568359,0.0,,,,,,,5334350,17,,,,,,,,,,10409026,7,57560,,,,,,,,,,,,,,,,,,,,,,,,,
5424734,b'THROW_MOT_START\x00',0.0,,,,,,,,,,,,,,,,,,,,,,,,,,,,,,,,,,,,,,,11692921,0.006761394441127777,-0.010324896313250065,0.005883128382265568,0.30813226103782654,0.14552131295204163,-9.859163284301758,0,0,0.0,1,1,5424744,b'Frame: QUAD\x00\x00\x00\x00\x00\x00\x00\x00\x00\x00\x00\x00\x00\x00\x00\x00\x00\x00\x00\x00\x00\x00\x00\x00\x00\x00\x00\x00\x00\x00\x00\x00\x00\x00\x00\x00\x00\x00\x00\x00\x00\x00\x00\x00\x00\x00\x00\x00\x00\x00\x00\x00\x00',11713229,0,0,0,0,0,0,0,0,0,0,0,0,0,0,11713235,1005,1005,1005,1005,920,920,920,920,920,920,920,920,,,11712775,-0.1503865122795105,101517.1328125,30.54,0.1523011475801468,,,,,,,,,,,,,,,,,,,,,,,,,,,,,,,,,,,,,,,,,,,,,,,,,,,,11712719,0,0,0,5000,0.0,0,11692864,0.0,-0.46,0.0,1.83,59.04,59.04,0.0,0.0,11712741,213,-357,-319,-122,20,4,0,0,0,1,5424748,0,0,,,,,,,,,,,,,,,,,,,,,,,,,,,,,,,,,,,,,,,,,,,11692903,-0.32,1.85,59.07,0.05999999865889549,0.0,0.0,,,,,,,,,,,,,,,,,,,,,,,,,,,,,,,,,,,,,,,,,,,,,,,,,,,,,,,,,,,,,,,,,,,,,,,,,,11692879,-0.46,1.83,59.04,0.02391844429075718,-0.00901142880320549,-0.10561111569404602,-0.016654372215270996,0.0,0.0,-0.15080854296684265,0.0,0.0,0.0,11692885,-1,0.0,0.0,0.0,0.0,0.0,406,0,-332,0,0,0,0,11692889,0.0,0.0,0.0,0.0,0.0,0.0,0,0,0,1.0,0.0,11692897,0.0,0.0,0.0,0.01,0.0,7.024104706943035e-05,0,0,0,19,24741,0,0,,,,,,,,,,,,,,,,,,,,,,,,,,,,,,,,,,,,,,,,,,,,,,,,,,,,,,,,,,,,,,,,,,,,,,,,,,,,,,,,,,,,,,,,,,,,,,,,,,,,,,,,,,,,,,,,,,,,,,,,,,,,,,,,,,,,,,,,,,,,,,,,,,,,,,,,,,,,,,,,,,,,,,,,,,,,,,,,,,,,,11712744,-90,51,-352,204,24,414,0,0,0,1,,,,,,,,,,,,,,,,,,,,,,,,,,,,,,,,,,,,,,,,,,11692913,51.58431625366211,1.814865231513977,0.0,6.508866310119629,0.0,0.0,11692915,-60.419410705566406,-0.26052236557006836,0.0,-4.1319355964660645,0.0,0.0,11692917,27.8258113861084,-0.9253217577934265,0.0,-0.0,0.0,0.0,11692918,0.0,0.0,0.0,0.0,0.0,0.0,,,,,,,,,,,,,,,,,,11713242,0.10487757623195648,0.10247769951820374,0.10276709496974945,0,0,0,,,,,,,,,,,,,,,,,,,,,,,,,,,,,,,,,,,,,,,,,,,,,,,,,,,,,,,,,,,,,,,,,,,,,,,,,,,,,,,,,,,,,,,,,,,,,,,,,,,,,,,,,,,,,,,,11712783,0,0,0.0,0.0,-0.00151388521771878,-0.15,0.0,0.0,0,10,,,,,,,,11692908,39.4852180480957,39.48522186279297,8.0,-58.68259811401367,-58.68260192871094,-4.0,33.56904220581055,33.56904220581055,0.0,0.0,4.6123504638671875,0.0,,,,,,,5334350,17,,,,,,,,,,11413959,7,57560,,,,,,,,,,,,,,,,,,,,,,,,,
5424734,b'THROW_MOT_START\x00',0.0,,,,,,,,,,,,,,,,,,,,,,,,,,,,,,,,,,,,,,,12013155,-0.00497468700632453,0.0008904305868782103,0.002687647473067045,0.20427876710891724,0.0553564615547657,-9.829392433166504,0,0,0.0,1,1,5424744,b'Frame: QUAD\x00\x00\x00\x00\x00\x00\x00\x00\x00\x00\x00\x00\x00\x00\x00\x00\x00\x00\x00\x00\x00\x00\x00\x00\x00\x00\x00\x00\x00\x00\x00\x00\x00\x00\x00\x00\x00\x00\x00\x00\x00\x00\x00\x00\x00\x00\x00\x00\x00\x00\x00\x00\x00',12013020,0,0,0,0,0,0,0,0,0,0,0,0,0,0,12013026,1005,1005,1005,1005,920,920,920,920,920,920,920,920,,,12012646,0.04455896466970444,101514.90625,30.54,-0.470833957195282,,,,,,,,,,,,,,,,,,,,,,,,,,,,,,,,,,,,,,,,,,,,,,,,,,,,12012597,0,0,0,5000,0.0,0,12032905,0.0,-0.48,0.0,1.86,58.97,58.97,0.0,0.01,12012616,219,-359,-330,-122,20,4,0,0,0,1,5424748,0,0,,,,,,,,,,,,,,,,,,,,,,,,,,,,,,,,,,,,,,,,,,,12013067,-0.36,1.8800000000000001,59.26,0.03999999910593033,0.0,0.0,,,,,,,,,,,,,,,,,,,,,,,,,,,,,,,,,,,,,,,,,,,,,,,,,,,,,,,,,,,,,,,,,,,,,,,,,,12032917,-0.48,1.86,58.97,0.02637745812535286,-0.017204299569129944,-0.10922738909721375,-0.024374812841415405,0.0,0.0,-0.16184721887111664,-0.01,0.0,-0.01,12032923,-1,0.0,0.0,0.0,0.0,0.0,406,0,-332,0,0,0,0,12013056,0.0,0.0,0.0,0.0,0.0,-0.13,0,0,0,-1.2,0.0,12013062,0.0,0.0,0.0,0.02,0.0,8.640198211651295e-05,0,0,0,19,24741,0,0,,,,,,,,,,,,,,,,,,,,,,,,,,,,,,,,,,,,,,,,,,,,,,,,,,,,,,,,,,,,,,,,,,,,,,,,,,,,,,,,,,,,,,,,,,,,,,,,,,,,,,,,,,,,,,,,,,,,,,,,,,,,,,,,,,,,,,,,,,,,,,,,,,,,,,,,,,,,,,,,,,,,,,,,,,,,,,,,,,,,,12012618,-90,50,-351,204,24,414,0,0,0,1,,,,,,,,,,,,,,,,,,,,,,,,,,,,,,,,,,,,,,,,,,12013075,-27.882686614990234,-0.10378392785787582,0.0,-2.251077175140381,0.0,0.0,12013077,6.305612087249756,0.08552391082048416,0.0,-0.21471476554870605,0.0,0.0,12013079,25.52090835571289,-0.5034092664718628,0.0,0.0,0.0,0.0,12013152,0.0,0.0,0.0,0.0,0.0,0.0,,,,,,,,,,,,,,,,,,12013032,0.10072869062423706,0.10278653353452682,0.09824729710817337,0,0,0,,,,,,,,,,,,,,,,,,,,,,,,,,,,,,,,,,,,,,,,,,,,,,,,,,,,,,,,,,,,,,,,,,,,,,,,,,,,,,,,,,,,,,,,,,,,,,,,,,,,,,,,,,,,,,,,12012652,0,0,0.0,0.0,-0.0016147488495334983,0.04,0.0,0.0,0,11,,,,,,,,12013071,-27.190793991088867,-27.190797805786133,-2.0,5.735452175140381,5.735452651977539,0.0,16.56587791442871,16.565879821777344,0.0,0.0,0.9698867797851562,0.0,,,,,,,5334350,17,,,,,,,,,,11413959,7,57560,,,,,,,,,,,,,,,,,,,,,,,,,
5424734,b'THROW_MOT_START\x00',0.0,,,,,,,,,,,,,,,,,,,,,,,,,,,,,,,,,,,,,,,12333039,0.006155875977128744,-0.006614704616367817,-0.00891096331179142,0.4059945344924927,0.07037391513586044,-9.835813522338867,0,0,0.0,1,1,5424744,b'Frame: QUAD\x00\x00\x00\x00\x00\x00\x00\x00\x00\x00\x00\x00\x00\x00\x00\x00\x00\x00\x00\x00\x00\x00\x00\x00\x00\x00\x00\x00\x00\x00\x00\x00\x00\x00\x00\x00\x00\x00\x00\x00\x00\x00\x00\x00\x00\x00\x00\x00\x00\x00\x00\x00\x00',12313388,0,0,0,0,0,0,0,0,0,0,0,0,0,0,12313460,1005,1005,1005,1005,920,920,920,920,920,920,920,920,,,12313004,0.03898909315466881,101514.984375,30.53,0.2593470811843872,,,,,,,,,,,,,,,,,,,,,,,,,,,,,,,,,,,,,,,,,,,,,,,,,,,,12312640,0,0,0,5000,0.0,0,12352962,0.0,-0.45,0.0,1.85,58.980000000000004,58.980000000000004,0.0,0.01,12312967,224,-350,-340,-122,20,4,0,0,0,1,5424748,0,0,,,,,,,,,,,,,,,,,,,,,,,,,,,,,,,,,,,,,,,,,,,12352998,-0.32,1.77,59.39,0.029999999329447746,0.0,0.0,,,,,,,,,,,,,,,,,,,,,,,,,,,,,,,,,,,,,,,,,,,,,,,,,,,,,,,,,,,,,,,,,,,,,,,,,,12352977,-0.45,1.85,58.980000000000004,0.023436997085809708,-0.01855342462658882,-0.10978035628795624,-0.01690468192100525,0.0,0.0,-0.16447758674621582,-0.01,0.0,-0.02,12352983,-1,0.0,0.0,0.0,0.0,0.0,406,0,-332,0,0,0,0,12352986,0.0,0.0,0.0,0.0,0.0,-0.05,0,0,0,-0.74,0.0,12352992,0.0,0.0,0.0,0.01,0.0,8.377014455618337e-05,0,0,0,19,24741,0,0,,,,,,,,,,,,,,,,,,,,,,,,,,,,,,,,,,,,,,,,,,,,,,,,,,,,,,,,,,,,,,,,,,,,,,,,,,,,,,,,,,,,,,,,,,,,,,,,,,,,,,,,,,,,,,,,,,,,,,,,,,,,,,,,,,,,,,,,,,,,,,,,,,,,,,,,,,,,,,,,,,,,,,,,,,,,,,,,,,,,,12312972,-89,49,-350,204,24,414,0,0,0,1,,,,,,,,,,,,,,,,,,,,,,,,,,,,,,,,,,,,,,,,,,12333032,33.391502380371094,-0.5367564558982849,0.0,-0.4457622170448303,0.0,0.0,12333034,-42.53516387939453,-0.803798496723175,0.0,-2.7149055004119873,0.0,0.0,12333035,-37.220333099365234,0.48382148146629333,0.0,0.0,0.0,0.0,12333037,0.0,0.0,0.0,0.0,0.0,0.0,,,,,,,,,,,,,,,,,,12313467,0.12090575695037842,0.09712009876966476,0.09226865321397781,0,0,0,,,,,,,,,,,,,,,,,,,,,,,,,,,,,,,,,,,,,,,,,,,,,,,,,,,,,,,,,,,,,,,,,,,,,,,,,,,,,,,,,,,,,,,,,,,,,,,,,,,,,,,,,,,,,,,,12313011,0,0,0.0,0.0,-0.0016416357830166817,0.03,0.0,0.0,0,10,,,,,,,,12333027,36.969879150390625,36.969879150390625,0.0,-37.17650604248047,-37.17650604248047,-3.0,-48.929534912109375,-48.92953872680664,0.0,0.0,2.100372314453125,0.0,,,,,,,5334350,17,,,,,,,,,,11413959,7,57560,,,,,,,,,,,,,,,,,,,,,,,,,
5424734,b'THROW_MOT_START\x00',0.0,,,,,,,,,,,,,,,,,,,,,,,,,,,,,,,,,,,,,,,12653130,0.0029022102244198322,0.004434776492416859,0.0008449130109511316,0.2806161344051361,0.11778423190116882,-9.803892135620117,0,0,0.0,1,1,5424744,b'Frame: QUAD\x00\x00\x00\x00\x00\x00\x00\x00\x00\x00\x00\x00\x00\x00\x00\x00\x00\x00\x00\x00\x00\x00\x00\x00\x00\x00\x00\x00\x00\x00\x00\x00\x00\x00\x00\x00\x00\x00\x00\x00\x00\x00\x00\x00\x00\x00\x00\x00\x00\x00\x00\x00\x00',12613346,0,0,0,0,0,0,0,0,0,0,0,0,0,0,12613353,1005,1005,1005,1005,920,920,920,920,920,920,920,920,,,12612959,0.08354806154966354,101514.4765625,30.53,0.0704936757683754,,,,,,,,,,,,,,,,,,,,,,,,,,,,,,,,,,,,,,,,,,,,,,,,,,,,12612902,0,0,0,5000,0.0,0,12673067,0.0,-0.41000000000000003,0.0,1.85,59.01,59.01,0.0,0.01,12612924,218,-352,-322,-122,20,4,0,0,0,1,5424748,0,0,,,,,,,,,,,,,,,,,,,,,,,,,,,,,,,,,,,,,,,,,,,12673103,-0.33,1.81,59.26,0.07999999821186066,0.0,0.0,,,,,,,,,,,,,,,,,,,,,,,,,,,,,,,,,,,,,,,,,,,,,,,,,,,,,,,,,,,,,,,,,,,,,,,,,,12673081,-0.41000000000000003,1.85,59.01,0.02185409888625145,-0.014062211848795414,-0.11358853429555893,-0.012746632099151611,0.0,0.0,-0.16682331264019012,-0.02,0.0,-0.02,12673086,-1,0.0,0.0,0.0,0.0,0.0,406,0,-332,0,0,0,0,12673090,0.0,0.0,0.0,0.0,0.0,-0.03,0,0,0,0.26,0.0,12673097,0.0,0.0,0.0,0.0,0.0,8.249421080108732e-05,0,0,0,19,24741,0,0,,,,,,,,,,,,,,,,,,,,,,,,,,,,,,,,,,,,,,,,,,,,,,,,,,,,,,,,,,,,,,,,,,,,,,,,,,,,,,,,,,,,,,,,,,,,,,,,,,,,,,,,,,,,,,,,,,,,,,,,,,,,,,,,,,,,,,,,,,,,,,,,,,,,,,,,,,,,,,,,,,,,,,,,,,,,,,,,,,,,,12612927,-90,51,-350,204,24,414,0,0,0,1,,,,,,,,,,,,,,,,,,,,,,,,,,,,,,,,,,,,,,,,,,12673113,12.477354049682617,0.8648978471755981,0.0,1.0955642461776733,0.0,0.0,12653125,18.3597469329834,-1.1495997905731201,0.0,-1.210013508796692,0.0,0.0,12653126,11.362346649169922,-0.18367187678813934,0.0,0.0,0.0,0.0,12653128,0.0,0.0,0.0,0.0,0.0,0.0,,,,,,,,,,,,,,,,,,12613359,0.10234110057353973,0.10270795226097107,0.11001609265804291,0,0,0,,,,,,,,,,,,,,,,,,,,,,,,,,,,,,,,,,,,,,,,,,,,,,,,,,,,,,,,,,,,,,,,,,,,,,,,,,,,,,,,,,,,,,,,,,,,,,,,,,,,,,,,,,,,,,,,12612967,0,0,0.0,0.0,-0.0016610862221568823,0.08,0.0,0.0,0,11,,,,,,,,12673108,6.711369037628174,6.711369514465332,1.0,11.123321533203125,11.123322486877441,0.0,16.46143341064453,16.46143341064453,0.0,0.0,9.369373321533203,0.0,,,,,,,5334350,17,,,,,,,,,,12413009,7,57560,,,,,,,,,,,,,,,,,,,,,,,,,
5424734,b'THROW_MOT_START\x00',0.0,,,,,,,,,,,,,,,,,,,,,,,,,,,,,,,,,,,,,,,12973076,0.003945472650229931,-0.014368453994393349,0.0018798825331032276,0.39825430512428284,-0.027020897716283798,-9.927298545837402,0,0,0.0,1,1,5424744,b'Frame: QUAD\x00\x00\x00\x00\x00\x00\x00\x00\x00\x00\x00\x00\x00\x00\x00\x00\x00\x00\x00\x00\x00\x00\x00\x00\x00\x00\x00\x00\x00\x00\x00\x00\x00\x00\x00\x00\x00\x00\x00\x00\x00\x00\x00\x00\x00\x00\x00\x00\x00\x00\x00\x00\x00',12913260,0,0,0,0,0,0,0,0,0,0,0,0,0,0,12913266,1005,1005,1005,1005,920,920,920,920,920,920,920,920,,,12912833,-0.10025767236948013,101516.5390625,30.53,-0.04351462796330452,,,,,,,,,,,,,,,,,,,,,,,,,,,,,,,,,,,,,,,,,,,,,,,,,,,,12912635,0,0,0,5000,0.0,0,12992989,0.0,-0.35000000000000003,0.0,1.82,59.01,59.01,0.0,0.0,12912797,219,-350,-327,-122,20,4,0,0,0,1,5424748,0,0,,,,,,,,,,,,,,,,,,,,,,,,,,,,,,,,,,,,,,,,,,,12993024,-0.31,1.87,59.300000000000004,-0.09999999403953552,0.0,0.0,,,,,,,,,,,,,,,,,,,,,,,,,,,,,,,,,,,,,,,,,,,,,,,,,,,,,,,,,,,,,,,,,,,,,,,,,,12993003,-0.35000000000000003,1.82,59.01,0.01984085701406002,-0.007746386807411909,-0.10784448683261871,-0.008733808994293213,0.0,0.0,-0.1680648773908615,-0.02,0.0,-0.02,12993009,-1,0.0,0.0,0.0,0.0,0.0,406,0,-332,0,0,0,0,12993012,0.0,0.0,0.0,0.0,0.0,-0.14,0,0,0,-0.7000000000000001,0.0,12993018,0.0,0.0,0.0,0.01,0.0,7.341636228375137e-05,0,0,0,19,24741,0,0,,,,,,,,,,,,,,,,,,,,,,,,,,,,,,,,,,,,,,,,,,,,,,,,,,,,,,,,,,,,,,,,,,,,,,,,,,,,,,,,,,,,,,,,,,,,,,,,,,,,,,,,,,,,,,,,,,,,,,,,,,,,,,,,,,,,,,,,,,,,,,,,,,,,,,,,,,,,,,,,,,,,,,,,,,,,,,,,,,,,,12912800,-89,51,-351,204,24,414,0,0,0,1,,,,,,,,,,,,,,,,,,,,,,,,,,,,,,,,,,,,,,,,,,12993034,32.06618881225586,0.2955440282821655,0.0,-0.01905517652630806,0.0,0.0,12993036,-24.984739303588867,-1.00570547580719,0.0,1.1689453125,0.0,0.0,12993037,15.803851127624512,-0.09660794585943222,0.0,0.0,0.0,0.0,12993039,0.0,0.0,0.0,0.0,0.0,0.0,,,,,,,,,,,,,,,,,,12913272,0.08950948715209961,0.09396123141050339,0.08935602754354477,0,0,0,,,,,,,,,,,,,,,,,,,,,,,,,,,,,,,,,,,,,,,,,,,,,,,,,,,,,,,,,,,,,,,,,,,,,,,,,,,,,,,,,,,,,,,,,,,,,,,,,,,,,,,,,,,,,,,,12912841,0,0,0.0,0.0,-0.0016789842629805207,-0.1,0.0,0.0,0,10,,,,,,,,12993028,30.095897674560547,30.095901489257812,0.0,-18.28003692626953,-18.280038833618164,0.0,12.37481689453125,12.374818801879883,0.0,0.0,-1.959228515625,0.0,,,,,,,5334350,17,,,,,,,,,,12413009,7,57560,,,,,,,,,,,,,,,,,,,,,,,,,
5424734,b'THROW_MOT_START\x00',0.0,,,,,,,,,,,,,,,,,,,,,,,,,,,,,,,,,,,,,,,13293570,0.001111537334509194,0.0009252699092030525,-0.0024239716585725546,0.23719990253448486,0.04606865346431732,-9.762001037597656,0,0,0.0,1,1,5424744,b'Frame: QUAD\x00\x00\x00\x00\x00\x00\x00\x00\x00\x00\x00\x00\x00\x00\x00\x00\x00\x00\x00\x00\x00\x00\x00\x00\x00\x00\x00\x00\x00\x00\x00\x00\x00\x00\x00\x00\x00\x00\x00\x00\x00\x00\x00\x00\x00\x00\x00\x00\x00\x00\x00\x00\x00',13313565,0,0,0,0,0,0,0,0,0,0,0,0,0,0,13313570,1005,1005,1005,1005,920,920,920,920,920,920,920,920,,,13313117,0.050128836184740067,101514.859375,30.53,0.15820418298244476,,,,,,,,,,,,,,,,,,,,,,,,,,,,,,,,,,,,,,,,,,,,,,,,,,,,13313064,0,0,0,5000,0.0,0,13313585,0.0,-0.36,0.0,1.83,58.980000000000004,58.980000000000004,0.0,0.0,13313084,222,-349,-340,-122,20,4,0,0,0,1,5424748,0,0,,,,,,,,,,,,,,,,,,,,,,,,,,,,,,,,,,,,,,,,,,,13313616,-0.37,1.8800000000000001,59.24,0.04999999701976776,0.0,0.0,,,,,,,,,,,,,,,,,,,,,,,,,,,,,,,,,,,,,,,,,,,,,,,,,,,,,,,,,,,,,,,,,,,,,,,,,,13313595,-0.36,1.83,58.980000000000004,0.014285086654126644,0.0016833515837788582,-0.10187855362892151,-0.002377629280090332,0.0,0.0,-0.16664046049118042,-0.02,0.0,-0.03,13313601,-2,0.0,0.0,0.0,0.0,0.0,406,0,-332,0,0,0,0,13313603,0.0,0.0,0.0,0.0,0.0,-0.2,0,0,0,-0.13,0.0,13313610,0.0,0.0,0.01,0.0,0.0,4.872264253208414e-05,0,0,0,19,24741,0,0,,,,,,,,,,,,,,,,,,,,,,,,,,,,,,,,,,,,,,,,,,,,,,,,,,,,,,,,,,,,,,,,,,,,,,,,,,,,,,,,,,,,,,,,,,,,,,,,,,,,,,,,,,,,,,,,,,,,,,,,,,,,,,,,,,,,,,,,,,,,,,,,,,,,,,,,,,,,,,,,,,,,,,,,,,,,,,,,,,,,,13313086,-88,50,-350,204,24,414,0,0,0,1,,,,,,,,,,,,,,,,,,,,,,,,,,,,,,,,,,,,,,,,,,13293493,3.3766350746154785,-0.8365616202354431,0.0,-1.0142332315444946,0.0,0.0,13293495,9.658939361572266,0.5888376832008362,0.0,0.6819348335266113,0.0,0.0,13293497,-10.236639976501465,-0.23077170550823212,0.0,0.0,0.0,0.0,13293567,0.0,0.0,0.0,0.0,0.0,0.0,,,,,,,,,,,,,,,,,,13313577,0.09369497001171112,0.09630336612462997,0.09037395566701889,0,0,0,,,,,,,,,,,,,,,,,,,,,,,,,,,,,,,,,,,,,,,,,,,,,,,,,,,,,,,,,,,,,,,,,,,,,,,,,,,,,,,,,,,,,,,,,,,,,,,,,,,,,,,,,,,,,,,,13313124,0,0,0.0,0.0,-0.0016664046561345458,0.05,0.0,0.0,0,10,,,,,,,,13313621,-28.155977249145508,-28.155981063842773,3.0,-23.582685470581055,-23.582687377929688,-2.0,-25.853954315185547,-25.85395622253418,0.0,0.0,1.9307136535644531,0.0,,,,,,,5334350,17,,,,,,,,,,12413009,7,57560,,,,,,,,,,,,,,,,,,,,,,,,,
